ID,city,city_ascii,lat,lng,fed,province / region,Timezone
1,Tokyo,Tokyo,35.685,139.7514,JP,Tōkyō,Tokyo: UTC+9
2,New York,New York,40.6943,-73.9249,US,New York,New_York: UTC-5(-4)
3,Mexico City,Mexico City,19.4424,-99.131,MX,Ciudad de México,Mexico_City: UTC-6
4,Mumbai,Mumbai,19.017,72.857,IN,Mahārāshtra,Mumbai: UTC+5.5
5,São Paulo,Sao Paulo,-23.5587,-46.625,BR,São Paulo,São_Paulo: UTC-3
6,Delhi,Delhi,28.67,77.23,IN,Delhi,Mumbai: UTC+5.5
7,Shanghai,Shanghai,31.2165,121.4365,CN,Shanghai,Shanghai: UTC+8
8,Kolkata,Kolkata,22.495,88.3247,IN,West Bengal,Mumbai: UTC+5.5
9,Los Angeles,Los Angeles,34.1139,-118.407,US,California,Los_Angeles: UTC-8(-7)
10,Dhaka,Dhaka,23.7231,90.4086,BD,Dhaka,Dhaka: UTC+6
11,Buenos Aires,Buenos Aires,-34.6025,-58.3975,AR,"Buenos Aires, Ciudad Autónoma de",São_Paulo: UTC-3
12,Karachi,Karachi,24.87,66.99,PK,Sindh,Karachi: UTC+5
13,Cairo,Cairo,30.05,31.25,EG,Al Qāhirah,Cairo: UTC+2(+3)
14,Rio de Janeiro,Rio de Janeiro,-22.925,-43.225,BR,Rio de Janeiro,São_Paulo: UTC-3
15,Ōsaka,Osaka,34.75,135.4601,JP,Ōsaka,Tokyo: UTC+9
16,Beijing,Beijing,39.9289,116.3883,CN,Beijing,Shanghai: UTC+8
17,Manila,Manila,14.6042,120.9822,PH,Manila,Shanghai: UTC+8
18,Moscow,Moscow,55.7522,37.6155,RU,Moskva,Istanbul: UTC+3
19,Istanbul,Istanbul,41.105,29.01,TR,İstanbul,Istanbul: UTC+3
20,Paris,Paris,48.8667,2.3333,FR,Île-de-France,Paris: UTC+1(+2)
21,Seoul,Seoul,37.5663,126.9997,KR,Seoul,Tokyo: UTC+9
22,Lagos,Lagos,6.4433,3.3915,NG,Lagos,Lagos: UTC+1
23,Jakarta,Jakarta,-6.1744,106.8294,ID,Jakarta,Jakarta: UTC+7
24,Guangzhou,Guangzhou,23.145,113.325,CN,Guangdong,Shanghai: UTC+8
25,Chicago,Chicago,41.8373,-87.6862,US,Illinois,Chicago: UTC-6(-5)
26,London,London,51.5,-0.1167,UK,"London, City of",London: UTC±0(+1)
27,Lima,Lima,-12.048,-77.0501,PE,Lima,Lima: UTC-5
28,Tehran,Tehran,35.6719,51.4243,IR,Tehrān,Tehran: UTC+3.5
29,Kinshasa,Kinshasa,-4.3297,15.315,CD,Kinshasa,Lagos: UTC+1
30,Bogotá,Bogota,4.5964,-74.0833,CO,Bogotá,Lima: UTC-5
31,Shenzhen,Shenzhen,22.5524,114.1221,CN,Guangdong,Shanghai: UTC+8
32,Wuhan,Wuhan,30.58,114.27,CN,Hubei,Shanghai: UTC+8
33,Hong Kong,Hong Kong,22.305,114.185,HK,Hong Kong,Shanghai: UTC+8
34,Tianjin,Tianjin,39.13,117.2,CN,Tianjin,Shanghai: UTC+8
35,Chennai,Chennai,13.09,80.28,IN,Tamil Nādu,Mumbai: UTC+5.5
36,Taipei,Taipei,25.0358,121.5683,TW,Taipei,Shanghai: UTC+8
37,Bengalūru,Bengaluru,12.97,77.56,IN,Karnātaka,Mumbai: UTC+5.5
38,Bangkok,Bangkok,13.75,100.5166,TH,Krung Thep Maha Nakhon,Jakarta: UTC+7
39,Lahore,Lahore,31.56,74.35,PK,Punjab,Karachi: UTC+5
40,Chongqing,Chongqing,29.565,106.595,CN,Chongqing,Shanghai: UTC+8
41,Miami,Miami,25.7839,-80.2102,US,Florida,New_York: UTC-5(-4)
42,Hyderabad,Hyderabad,17.4,78.48,IN,Telangana,Mumbai: UTC+5.5
43,Dallas,Dallas,32.7936,-96.7662,US,Texas,Chicago: UTC-6(-5)
44,Santiago,Santiago,-33.45,-70.667,CL,Región Metropolitana,Santiago: UTC-3(-4)
45,Philadelphia,Philadelphia,40.0077,-75.1339,US,Pennsylvania,New_York: UTC-5(-4)
46,Belo Horizonte,Belo Horizonte,-19.915,-43.915,BR,Minas Gerais,São_Paulo: UTC-3
47,Madrid,Madrid,40.4,-3.6834,ES,Madrid,Paris: UTC+1(+2)
48,Houston,Houston,29.7869,-95.3905,US,Texas,Chicago: UTC-6(-5)
49,Ahmadābād,Ahmadabad,23.0301,72.58,IN,Gujarāt,Mumbai: UTC+5.5
50,Ho Chi Minh City,Ho Chi Minh City,10.78,106.695,VN,Hồ Chí Minh,Jakarta: UTC+7
51,Washington,Washington,38.9047,-77.0163,US,District of Columbia,New_York: UTC-5(-4)
52,Atlanta,Atlanta,33.7627,-84.4225,US,Georgia,New_York: UTC-5(-4)
53,Toronto,Toronto,43.7,-79.42,CA,Ontario,New_York: UTC-5(-4)
54,Singapore,Singapore,1.293,103.8558,SG,Singapore,Shanghai: UTC+8
55,Luanda,Luanda,-8.8383,13.2344,AO,Luanda,Lagos: UTC+1
56,Baghdad,Baghdad,33.3386,44.3939,IQ,Baghdād,Istanbul: UTC+3
57,Barcelona,Barcelona,41.3833,2.1834,CAT,Catalonia,Paris: UTC+1(+2)
58,Hāora,Haora,22.5804,88.3299,IN,West Bengal,Mumbai: UTC+5.5
59,Shenyang,Shenyang,41.805,123.45,CN,Liaoning,Shanghai: UTC+8
60,Khartoum,Khartoum,15.5881,32.5342,SD,Khartoum,Johannesburg: UTC+2
61,Pune,Pune,18.53,73.85,IN,Mahārāshtra,Mumbai: UTC+5.5
62,Boston,Boston,42.3188,-71.0846,US,Massachusetts,New_York: UTC-5(-4)
63,Sydney,Sydney,-33.92,151.1852,AU,New South Wales,Sydney: UTC+11(+10)
64,Saint Petersburg,Saint Petersburg,59.939,30.316,RU,Sankt-Peterburg,Istanbul: UTC+3
65,Chittagong,Chittagong,22.33,91.8,BD,Chittagong,Dhaka: UTC+6
66,Dongguan,Dongguan,23.0489,113.7447,CN,Guangdong,Shanghai: UTC+8
67,Riyadh,Riyadh,24.6408,46.7727,SA,Ar Riyāḑ,Istanbul: UTC+3
68,Hanoi,Hanoi,21.0333,105.85,VN,Hà Nội,Jakarta: UTC+7
69,Guadalajara,Guadalajara,20.67,-103.33,MX,Jalisco,Mexico_City: UTC-6
70,Melbourne,Melbourne,-37.82,144.975,AU,Victoria,Sydney: UTC+11(+10)
71,Alexandria,Alexandria,31.2,29.95,EG,Al Iskandarīyah,Cairo: UTC+2(+3)
72,Chengdu,Chengdu,30.67,104.07,CN,Sichuan,Shanghai: UTC+8
73,Yangon,Yangon,16.7834,96.1667,MM,Yangon,Yangon: UTC+6.5
74,Phoenix,Phoenix,33.5722,-112.089,US,Arizona,Phoenix: UTC-7
75,Xi’an,Xi'an,34.275,108.895,CN,Shaanxi,Shanghai: UTC+8
76,Porto Alegre,Porto Alegre,-30.05,-51.2,BR,Rio Grande do Sul,São_Paulo: UTC-3
77,Sūrat,Surat,21.2,72.84,IN,Gujarāt,Mumbai: UTC+5.5
78,Hechi,Hechi,23.0965,109.6091,CN,Guangxi,Shanghai: UTC+8
79,Abidjan,Abidjan,5.32,-4.04,CI,Abidjan,Abidjan: UTC±0
80,Brasília,Brasilia,-15.7833,-47.9161,BR,Distrito Federal,São_Paulo: UTC-3
81,Ankara,Ankara,39.9272,32.8644,TR,Ankara,Istanbul: UTC+3
82,Monterrey,Monterrey,25.67,-100.33,MX,Nuevo León,Mexico_City: UTC-6
83,Yokohama,Yokohama,35.32,139.58,JP,Kanagawa,Tokyo: UTC+9
84,Nanjing,Nanjing,32.05,118.78,CN,Jiangsu,Shanghai: UTC+8
85,Montréal,Montreal,45.5,-73.5833,QUEBEC,Québec,New_York: UTC-5(-4)
86,Guiyang,Guiyang,26.58,106.72,CN,Guizhou,Shanghai: UTC+8
87,Recife,Recife,-8.0756,-34.9156,BR,Pernambuco,São_Paulo: UTC-3
88,Seattle,Seattle,47.6211,-122.324,US,Washington,Los_Angeles: UTC-8(-7)
89,Harbin,Harbin,45.75,126.65,CN,Heilongjiang,Shanghai: UTC+8
90,San Francisco,San Francisco,37.7562,-122.443,US,California,Los_Angeles: UTC-8(-7)
91,Fortaleza,Fortaleza,-3.75,-38.58,BR,Ceará,São_Paulo: UTC-3
92,Zhangzhou,Zhangzhou,24.5204,117.67,CN,Fujian,Shanghai: UTC+8
93,Detroit,Detroit,42.3834,-83.1024,US,Michigan,New_York: UTC-5(-4)
94,Salvador,Salvador,-12.97,-38.48,BR,Bahia,São_Paulo: UTC-3
95,Busan,Busan,35.0951,129.01,KR,Busan,Tokyo: UTC+9
96,Johannesburg,Johannesburg,-26.17,28.03,ZA,Gauteng,Johannesburg: UTC+2
97,Berlin,Berlin,52.5218,13.4015,DE,Berlin,Paris: UTC+1(+2)
98,Algiers,Algiers,36.7631,3.0506,DZ,Alger,Lagos: UTC+1
99,Rome,Rome,41.896,12.4833,IT,Lazio,Paris: UTC+1(+2)
100,Pyongyang,Pyongyang,39.0194,125.7547,KP,P’yŏngyang,Tokyo: UTC+9
101,Medellín,Medellin,6.275,-75.575,CO,Antioquia,Lima: UTC-5
102,Kabul,Kabul,34.5167,69.1833,AF,Kābul,Kabul: UTC+4.5
103,Athens,Athens,37.9833,23.7333,GR,Attikí,Athens: UTC+2(+3)
104,Nagoya,Nagoya,35.155,136.915,JP,Aichi,Tokyo: UTC+9
105,Cape Town,Cape Town,-33.92,18.435,ZA,Western Cape,Johannesburg: UTC+2
106,San Diego,San Diego,32.8312,-117.123,US,California,Los_Angeles: UTC-8(-7)
107,Changchun,Changchun,43.865,125.34,CN,Jilin,Shanghai: UTC+8
108,Casablanca,Casablanca,33.6,-7.6164,MA,Casablanca-Settat,Casablanca: UTC±0(+1)
109,Dalian,Dalian,38.9228,121.6298,CN,Liaoning,Shanghai: UTC+8
110,Cawnpore,Cawnpore,26.46,80.32,IN,Uttar Pradesh,Mumbai: UTC+5.5
111,Kano,Kano,12,8.52,NG,Kano,Lagos: UTC+1
112,Tel Aviv-Yafo,Tel Aviv-Yafo,32.08,34.77,IL,Tel Aviv,Jerusalem: UTC+2(+3)
113,Addis Ababa,Addis Ababa,9.0333,38.7,ET,Ādīs Ābeba,Istanbul: UTC+3
114,Curitiba,Curitiba,-25.42,-49.32,BR,Paraná,São_Paulo: UTC-3
115,Zibo,Zibo,36.8,118.05,CN,Shandong,Shanghai: UTC+8
116,Jeddah,Jeddah,21.5169,39.2192,SA,Makkah al Mukarramah,Istanbul: UTC+3
117,Nairobi,Nairobi,-1.2833,36.8167,KE,Nairobi City,Istanbul: UTC+3
118,Hangzhou,Hangzhou,30.25,120.17,CN,Zhejiang,Shanghai: UTC+8
119,Benoni,Benoni,-26.1496,28.3299,ZA,Gauteng,Johannesburg: UTC+2
120,Caracas,Caracas,10.501,-66.917,VE,Distrito Capital,Caracas: UTC-4
121,Milan,Milan,45.47,9.205,IT,Lombardy,Paris: UTC+1(+2)
122,Stuttgart,Stuttgart,48.78,9.2,DE,Baden-Württemberg,Paris: UTC+1(+2)
123,Kunming,Kunming,25.07,102.68,CN,Yunnan,Shanghai: UTC+8
124,Dar es Salaam,Dar es Salaam,-6.8,39.2683,TZ,Dar es Salaam,Istanbul: UTC+3
125,Minneapolis,Minneapolis,44.9635,-93.2678,US,Minnesota,Chicago: UTC-6(-5)
126,Jaipur,Jaipur,26.9211,75.81,IN,Rājasthān,Mumbai: UTC+5.5
127,Taiyuan,Taiyuan,37.875,112.5451,CN,Shanxi,Shanghai: UTC+8
128,Frankfurt,Frankfurt,50.1,8.675,DE,Hesse,Paris: UTC+1(+2)
129,Qingdao,Qingdao,36.09,120.33,CN,Shandong,Shanghai: UTC+8
130,Surabaya,Surabaya,-7.2492,112.7508,ID,Jawa Timur,Jakarta: UTC+7
131,Lisbon,Lisbon,38.7227,-9.1449,PT,Lisboa,London: UTC±0(+1)
132,Tampa,Tampa,27.9942,-82.4451,US,Florida,New_York: UTC-5(-4)
133,Jinan,Jinan,36.675,116.995,CN,Shandong,Shanghai: UTC+8
134,Fukuoka,Fukuoka,33.595,130.41,JP,Fukuoka,Tokyo: UTC+9
135,Campinas,Campinas,-22.9,-47.1,BR,São Paulo,São_Paulo: UTC-3
136,Denver,Denver,39.7621,-104.876,US,Colorado,Denver: UTC-7(-6)
137,Kaohsiung,Kaohsiung,22.6333,120.2666,TW,Kaohsiung,Shanghai: UTC+8
138,Quezon City,Quezon City,14.6504,121.03,PH,Quezon,Shanghai: UTC+8
139,Katowice,Katowice,50.2604,19.02,PL,Śląskie,Paris: UTC+1(+2)
140,Aleppo,Aleppo,36.23,37.17,SY,Ḩalab,Istanbul: UTC+3
141,Durban,Durban,-29.865,30.98,ZA,KwaZulu-Natal,Johannesburg: UTC+2
142,Kyiv,Kyiv,50.4334,30.5166,UA,"Kyyiv, Misto",Athens: UTC+2(+3)
143,Lucknow,Lucknow,26.855,80.915,IN,Uttar Pradesh,Mumbai: UTC+5.5
144,Giza,Giza,30.01,31.19,EG,Al Jīzah,Cairo: UTC+2(+3)
145,Zhengzhou,Zhengzhou,34.755,113.6651,CN,Henan,Shanghai: UTC+8
146,Taichung,Taichung,24.1521,120.6817,TW,Taichung,Shanghai: UTC+8
147,Brooklyn,Brooklyn,40.6501,-73.9496,US,New York,New_York: UTC-5(-4)
148,Ibadan,Ibadan,7.38,3.93,NG,Oyo,Lagos: UTC+1
149,Faisalabad,Faisalabad,31.41,73.11,PK,Punjab,Karachi: UTC+5
150,Fuzhou,Fuzhou,26.08,119.3,CN,Fujian,Shanghai: UTC+8
151,Changsha,Changsha,28.2,112.97,CN,Hunan,Shanghai: UTC+8
152,Dakar,Dakar,14.7158,-17.4731,SN,Dakar,Abidjan: UTC±0
153,İzmir,Izmir,38.4361,27.1518,TR,İzmir,Istanbul: UTC+3
154,Xiangtan,Xiangtan,27.8504,112.9,CN,Hunan,Shanghai: UTC+8
155,Lanzhou,Lanzhou,36.056,103.792,CN,Gansu,Shanghai: UTC+8
156,Incheon,Incheon,37.4761,126.6422,KR,Incheon,Tokyo: UTC+9
157,Sapporo,Sapporo,43.075,141.34,JP,Hokkaidō,Tokyo: UTC+9
158,Xiamen,Xiamen,24.45,118.08,CN,Fujian,Shanghai: UTC+8
159,Guayaquil,Guayaquil,-2.22,-79.92,EC,Guayas,Lima: UTC-5
160,George Town,George Town,5.4136,100.3294,MY,Pulau Pinang,Shanghai: UTC+8
161,Mashhad,Mashhad,36.27,59.57,IR,Khorāsān-e Raẕavī,Tehran: UTC+3.5
162,Damascus,Damascus,33.5,36.3,SY,Dimashq,Istanbul: UTC+3
163,Daegu,Daegu,35.8668,128.607,KR,Daegu,Tokyo: UTC+9
164,Nāgpur,Nagpur,21.17,79.09,IN,Mahārāshtra,Mumbai: UTC+5.5
165,Lianshan,Lianshan,40.7503,120.83,CN,Liaoning,Shanghai: UTC+8
166,Shijiazhuang,Shijiazhuang,38.05,114.48,CN,Hebei,Shanghai: UTC+8
167,Tunis,Tunis,36.8028,10.1797,TN,Tunis,Lagos: UTC+1
168,Vienna,Vienna,48.2,16.3666,AT,Wien,Paris: UTC+1(+2)
169,Jilin,Jilin,43.85,126.55,CN,Jilin,Shanghai: UTC+8
170,Omdurman,Omdurman,15.6167,32.48,SD,Khartoum,Johannesburg: UTC+2
171,Bandung,Bandung,-6.95,107.57,ID,Jawa Barat,Jakarta: UTC+7
172,Bekasi,Bekasi,-6.2173,106.9723,ID,Jawa Barat,Jakarta: UTC+7
173,Mannheim,Mannheim,49.5004,8.47,DE,Baden-Württemberg,Paris: UTC+1(+2)
174,Nanchang,Nanchang,28.68,115.88,CN,Jiangxi,Shanghai: UTC+8
175,Wenzhou,Wenzhou,28.02,120.6501,CN,Zhejiang,Shanghai: UTC+8
176,Queens,Queens,40.7498,-73.7976,US,New York,New_York: UTC-5(-4)
177,Vancouver,Vancouver,49.2734,-123.122,CA,British Columbia,Los_Angeles: UTC-8(-7)
178,Birmingham,Birmingham,52.475,-1.92,UK,Birmingham,London: UTC±0(+1)
179,Cali,Cali,3.4,-76.5,CO,Valle del Cauca,Lima: UTC-5
180,Naples,Naples,40.84,14.245,IT,Campania,Paris: UTC+1(+2)
181,Sendai,Sendai,38.2871,141.0217,JP,Miyagi,Tokyo: UTC+9
182,Manchester,Manchester,53.5004,-2.248,UK,Manchester,London: UTC±0(+1)
183,Puebla,Puebla,19.05,-98.2,MX,Puebla,Mexico_City: UTC-6
184,Tripoli,Tripoli,32.8925,13.18,LY,Ţarābulus,Johannesburg: UTC+2
185,Tashkent,Tashkent,41.3117,69.2949,UZ,Toshkent,Karachi: UTC+5
186,Havana,Havana,23.132,-82.3642,CU,La Habana,New_York: UTC-5(-4)
187,Gaoping,Gaoping,30.7804,106.13,CN,Sichuan,Shanghai: UTC+8
188,Baltimore,Baltimore,39.3051,-76.6144,US,Maryland,New_York: UTC-5(-4)
189,Nanning,Nanning,22.82,108.32,CN,Guangxi,Shanghai: UTC+8
190,Belém,Belem,-1.45,-48.48,BR,Pará,São_Paulo: UTC-3
191,Patna,Patna,25.625,85.13,IN,Bihār,Mumbai: UTC+5.5
192,Santo Domingo,Santo Domingo,18.4701,-69.9001,DO,Ozama,Caracas: UTC-4
193,Ürümqi,Urumqi,43.805,87.575,CN,Xinjiang,Dhaka: UTC+6
194,Zaozhuang,Zaozhuang,34.88,117.57,CN,Shandong,Shanghai: UTC+8
195,Baku,Baku,40.3953,49.8622,AZ,Bakı,Dubai: UTC+4
196,Accra,Accra,5.55,-0.2167,GH,Greater Accra,Abidjan: UTC±0
197,Yantai,Yantai,37.5304,121.4,CN,Shandong,Shanghai: UTC+8
198,Medan,Medan,3.58,98.65,ID,Sumatera Utara,Jakarta: UTC+7
199,Santa Cruz,Santa Cruz,-17.7539,-63.226,BO,Santa Cruz,Caracas: UTC-4
200,Tongshan,Tongshan,34.28,117.18,CN,Jiangsu,Shanghai: UTC+8
201,Riverside,Riverside,33.9381,-117.395,US,California,Los_Angeles: UTC-8(-7)
202,Linyi,Linyi,35.08,118.33,CN,Shandong,Shanghai: UTC+8
203,St. Louis,St. Louis,38.6358,-90.2451,US,Missouri,Chicago: UTC-6(-5)
204,Las Vegas,Las Vegas,36.2333,-115.265,US,Nevada,Los_Angeles: UTC-8(-7)
205,Maracaibo,Maracaibo,10.73,-71.66,VE,Zulia,Caracas: UTC-4
206,Kuwait City,Kuwait City,29.3697,47.9783,KW,Al ‘Āşimah,Istanbul: UTC+3
207,Ad Dammām,Ad Dammam,26.4282,50.0997,SA,Ash Sharqīyah,Istanbul: UTC+3
208,Portland,Portland,45.5371,-122.65,US,Oregon,Los_Angeles: UTC-8(-7)
209,Haikou,Haikou,20.05,110.32,CN,Hainan,Shanghai: UTC+8
210,Hiroshima,Hiroshima,34.3878,132.4429,JP,Hiroshima,Tokyo: UTC+9
211,Baotou,Baotou,40.6522,109.822,CN,Inner Mongolia,Shanghai: UTC+8
212,Hefei,Hefei,31.85,117.28,CN,Anhui,Shanghai: UTC+8
213,Indore,Indore,22.7151,75.865,IN,Madhya Pradesh,Mumbai: UTC+5.5
214,Goiânia,Goiania,-16.72,-49.3,BR,Goiás,São_Paulo: UTC-3
215,Sanaa,Sanaa,15.3547,44.2066,YE,Amānat al ‘Āşimah,Istanbul: UTC+3
216,San Antonio,San Antonio,29.4658,-98.5254,US,Texas,Chicago: UTC-6(-5)
217,Port-au-Prince,Port-au-Prince,18.541,-72.336,HT,Ouest,New_York: UTC-5(-4)
218,Haiphong,Haiphong,20.83,106.6801,VN,Hải Phòng,Jakarta: UTC+7
219,Suzhou,Suzhou,33.6361,116.9789,CN,Anhui,Shanghai: UTC+8
220,Nanyang,Nanyang,33.0004,112.53,CN,Henan,Shanghai: UTC+8
221,Bucharest,Bucharest,44.4334,26.0999,RO,Bucureşti,Athens: UTC+2(+3)
222,Ningbo,Ningbo,29.88,121.55,CN,Zhejiang,Shanghai: UTC+8
223,Douala,Douala,4.0604,9.71,CM,Littoral,Lagos: UTC+1
224,Tangshan,Tangshan,39.6243,118.1944,CN,Hebei,Shanghai: UTC+8
225,Tainan,Tainan,23,120.2,TW,Tainan,Shanghai: UTC+8
226,Xiping,Xiping,40.08,113.3,CN,Shanxi,Shanghai: UTC+8
227,Asunción,Asuncion,-25.2964,-57.6415,PY,Asunción,Asunción: UTC-3(-4)
228,Saidu Sharif,Saidu Sharif,34.75,72.35,PK,Khyber Pakhtunkhwa,Karachi: UTC+5
229,Brisbane,Brisbane,-27.455,153.0351,AU,Queensland,Brisbane: UTC+10
230,Rawalpindi,Rawalpindi,33.6,73.04,PK,Punjab,Karachi: UTC+5
231,Sacramento,Sacramento,38.5667,-121.468,US,California,Los_Angeles: UTC-8(-7)
232,Beirut,Beirut,33.872,35.5097,LB,Beyrouth,Beirut: UTC+2(+3)
233,San Jose,San Jose,37.3021,-121.849,US,California,Los_Angeles: UTC-8(-7)
234,Minsk,Minsk,53.9,27.5666,BY,Minsk,Istanbul: UTC+3
235,Kyōto,Kyoto,35.03,135.75,JP,Kyōto,Tokyo: UTC+9
236,Barranquilla,Barranquilla,10.96,-74.8,CO,Atlántico,Lima: UTC-5
237,Orlando,Orlando,28.4772,-81.3369,US,Florida,New_York: UTC-5(-4)
238,Shuyangzha,Shuyangzha,34.1299,118.7734,CN,Jiangsu,Shanghai: UTC+8
239,Valencia,Valencia,10.23,-67.98,VE,Carabobo,Caracas: UTC-4
240,Hamburg,Hamburg,53.55,10,DE,Hamburg,Paris: UTC+1(+2)
241,Vadodara,Vadodara,22.31,73.18,IN,Gujarāt,Mumbai: UTC+5.5
242,Manaus,Manaus,-3.1,-60,BR,Amazonas,Caracas: UTC-4
243,Shangqiu,Shangqiu,34.4504,115.65,CN,Henan,Shanghai: UTC+8
244,Wuxi,Wuxi,31.58,120.3,CN,Jiangsu,Shanghai: UTC+8
245,Palembang,Palembang,-2.98,104.75,ID,Sumatera Selatan,Jakarta: UTC+7
246,Brussels,Brussels,50.8333,4.3333,BE,Brussels-Capital Region,Paris: UTC+1(+2)
247,Essen,Essen,51.45,7.0166,DE,North Rhine-Westphalia,Paris: UTC+1(+2)
248,Cleveland,Cleveland,41.4767,-81.6805,US,Ohio,New_York: UTC-5(-4)
249,Bhopal,Bhopal,23.25,77.41,IN,Madhya Pradesh,Mumbai: UTC+5.5
250,Hohhot,Hohhot,40.82,111.66,CN,Inner Mongolia,Shanghai: UTC+8
251,Pittsburgh,Pittsburgh,40.4396,-79.9763,US,Pennsylvania,New_York: UTC-5(-4)
252,Luoyang,Luoyang,34.68,112.4701,CN,Henan,Shanghai: UTC+8
253,Santos,Santos,-23.9537,-46.3329,BR,São Paulo,São_Paulo: UTC-3
254,Jingling,Jingling,30.6501,113.16,CN,Hubei,Shanghai: UTC+8
255,Warsaw,Warsaw,52.25,21,PL,Mazowieckie,Paris: UTC+1(+2)
256,Rabat,Rabat,34.0253,-6.8361,MA,Rabat-Salé-Kénitra,Casablanca: UTC±0(+1)
257,Vitória,Vitoria,-20.324,-40.366,BR,Espírito Santo,São_Paulo: UTC-3
258,Quito,Quito,-0.215,-78.5001,EC,Pichincha,Lima: UTC-5
259,Antananarivo,Antananarivo,-18.9166,47.5166,MG,Antananarivo,Istanbul: UTC+3
260,Coimbatore,Coimbatore,11,76.95,IN,Tamil Nādu,Mumbai: UTC+5.5
261,Daqing,Daqing,46.58,125,CN,Heilongjiang,Shanghai: UTC+8
262,Lu’an,Lu'an,31.7503,116.48,CN,Anhui,Shanghai: UTC+8
263,Sanzhou,Sanzhou,30.82,108.4,CN,Chongqing,Shanghai: UTC+8
264,Budapest,Budapest,47.5,19.0833,HU,Budapest,Paris: UTC+1(+2)
265,Turin,Turin,45.0704,7.67,IT,Piedmont,Paris: UTC+1(+2)
266,Suzhou,Suzhou,31.3005,120.62,CN,Jiangsu,Shanghai: UTC+8
267,Ludhiāna,Ludhiana,30.9278,75.8723,IN,Punjab,Mumbai: UTC+5.5
268,Cincinnati,Cincinnati,39.1412,-84.506,US,Ohio,New_York: UTC-5(-4)
269,Kumasi,Kumasi,6.69,-1.63,GH,Ashanti,Abidjan: UTC±0
270,Manhattan,Manhattan,40.7834,-73.9662,US,New York,New_York: UTC-5(-4)
271,Qiqihar,Qiqihar,47.345,123.99,CN,Heilongjiang,Shanghai: UTC+8
272,Anshan,Anshan,41.115,122.94,CN,Liaoning,Shanghai: UTC+8
273,Austin,Austin,30.3006,-97.7517,US,Texas,Chicago: UTC-6(-5)
274,Zhongli,Zhongli,24.965,121.2168,TW,Taoyuan,Shanghai: UTC+8
275,Handan,Handan,36.58,114.48,CN,Hebei,Shanghai: UTC+8
276,Tai’an,Tai'an,36.2,117.1201,CN,Shandong,Shanghai: UTC+8
277,Eşfahān,Esfahan,32.7,51.7,IR,Eşfahān,Tehran: UTC+3.5
278,Kansas City,Kansas City,39.1239,-94.5541,US,Missouri,Chicago: UTC-6(-5)
279,Yaoundé,Yaounde,3.8667,11.5167,CM,Centre,Lagos: UTC+1
280,Shantou,Shantou,23.37,116.67,CN,Guangdong,Shanghai: UTC+8
281,Āgra,Agra,27.1704,78.015,IN,Uttar Pradesh,Mumbai: UTC+5.5
282,Zhanjiang,Zhanjiang,21.2,110.38,CN,Guangdong,Shanghai: UTC+8
283,La Paz,La Paz,-16.498,-68.15,BO,La Paz,Caracas: UTC-4
284,Kalyān,Kalyan,19.2502,73.1602,IN,Mahārāshtra,Mumbai: UTC+5.5
285,Abuja,Abuja,9.0833,7.5333,NG,Federal Capital Territory,Lagos: UTC+1
286,Harare,Harare,-17.8178,31.0447,ZW,Harare,Johannesburg: UTC+2
287,Indianapolis,Indianapolis,39.7771,-86.1458,US,Indiana,New_York: UTC-5(-4)
288,Xiantao,Xiantao,30.3704,113.44,CN,Hubei,Shanghai: UTC+8
289,Khulna,Khulna,22.84,89.56,BD,Khulna,Dhaka: UTC+6
290,Weifang,Weifang,36.7204,119.1001,CN,Shandong,Shanghai: UTC+8
291,Tijuana,Tijuana,32.5,-117.08,MX,Baja California,Los_Angeles: UTC-8(-7)
292,Santiago,Santiago,19.5,-70.67,DO,Cibao Norte,Caracas: UTC-4
293,Xinyang,Xinyang,32.1304,114.07,CN,Henan,Shanghai: UTC+8
294,Luzhou,Luzhou,28.88,105.38,CN,Sichuan,Shanghai: UTC+8
295,Perth,Perth,-31.955,115.84,AU,Western Australia,Shanghai: UTC+8
296,Toluca,Toluca,19.3304,-99.67,MX,México,Mexico_City: UTC-6
297,Vishākhapatnam,Vishakhapatnam,17.73,83.305,IN,Andhra Pradesh,Mumbai: UTC+5.5
298,Leeds,Leeds,53.83,-1.58,UK,Leeds,London: UTC±0(+1)
299,Kōbe,Kobe,34.68,135.17,JP,Hyōgo,Tokyo: UTC+9
300,Columbus,Columbus,39.986,-82.9851,US,Ohio,New_York: UTC-5(-4)
301,Multan,Multan,30.2,71.455,PK,Punjab,Karachi: UTC+5
302,Kochi,Kochi,10.015,76.2239,IN,Kerala,Mumbai: UTC+5.5
303,Montevideo,Montevideo,-34.858,-56.1711,UY,Montevideo,São_Paulo: UTC-3
304,Gujranwala,Gujranwala,32.1604,74.185,PK,Punjab,Karachi: UTC+5
305,Niterói,Niteroi,-22.9,-43.1,BR,Rio de Janeiro,São_Paulo: UTC-3
306,Ganzhou,Ganzhou,25.92,114.95,CN,Jiangxi,Shanghai: UTC+8
307,Florence,Florence,43.78,11.25,IT,Tuscany,Paris: UTC+1(+2)
308,Liuzhou,Liuzhou,24.28,109.25,CN,Guangxi,Shanghai: UTC+8
309,Bamako,Bamako,12.65,-8,ML,Bamako,Abidjan: UTC±0
310,Conakry,Conakry,9.5315,-13.6802,GN,Conakry,Abidjan: UTC±0
311,Bursa,Bursa,40.2,29.07,TR,Bursa,Istanbul: UTC+3
312,León de los Aldama,Leon de los Aldama,21.15,-101.7,MX,Guanajuato,Mexico_City: UTC-6
313,Virginia Beach,Virginia Beach,36.7335,-76.0435,US,Virginia,New_York: UTC-5(-4)
314,Nāsik,Nasik,20.0004,73.78,IN,Mahārāshtra,Mumbai: UTC+5.5
315,Fushun,Fushun,41.8654,123.87,CN,Liaoning,Shanghai: UTC+8
316,Changde,Changde,29.03,111.68,CN,Hunan,Shanghai: UTC+8
317,Daejeon,Daejeon,36.3355,127.425,KR,Daejeon,Tokyo: UTC+9
318,Charlotte,Charlotte,35.2079,-80.8304,US,North Carolina,New_York: UTC-5(-4)
319,Phnom Penh,Phnom Penh,11.55,104.9166,KH,Phnom Penh,Jakarta: UTC+7
320,Neijiang,Neijiang,29.5804,105.05,CN,Sichuan,Shanghai: UTC+8
321,Quanzhou,Quanzhou,24.9,118.58,CN,Fujian,Shanghai: UTC+8
322,Kharkiv,Kharkiv,50,36.25,UA,Kharkivs’ka Oblast’,Athens: UTC+2(+3)
323,Hyderabad City,Hyderabad City,25.38,68.375,PK,Sindh,Karachi: UTC+5
324,Bronx,Bronx,40.8501,-73.8662,US,New York,New_York: UTC-5(-4)
325,Lomé,Lome,6.1319,1.2228,TG,Maritime,Abidjan: UTC±0
326,Córdoba,Cordoba,-31.4,-64.1823,AR,Córdoba,São_Paulo: UTC-3
327,Huainan,Huainan,32.63,116.98,CN,Anhui,Shanghai: UTC+8
328,Doha,Doha,25.2866,51.533,QA,Ad Dawḩah,Istanbul: UTC+3
329,Kuala Lumpur,Kuala Lumpur,3.1667,101.7,MY,Kuala Lumpur,Shanghai: UTC+8
330,Maputo,Maputo,-25.9553,32.5892,MZ,Maputo,Johannesburg: UTC+2
331,Kaduna,Kaduna,10.52,7.44,NG,Kaduna,Lagos: UTC+1
332,Gwangju,Gwangju,35.171,126.9104,KR,Gwangju,Tokyo: UTC+9
333,Kawanakajima,Kawanakajima,35.53,139.705,JP,Kanagawa,Tokyo: UTC+9
334,San Salvador,San Salvador,13.71,-89.203,SV,San Salvador,Mexico_City: UTC-6
335,Suining,Suining,30.5333,105.5333,CN,Sichuan,Shanghai: UTC+8
336,Lyon,Lyon,45.77,4.83,FR,Auvergne-Rhône-Alpes,Paris: UTC+1(+2)
337,Karaj,Karaj,35.8004,50.97,IR,Alborz,Tehran: UTC+3.5
338,Kampala,Kampala,0.3167,32.5833,UG,Kampala,Istanbul: UTC+3
339,Tabrīz,Tabriz,38.0863,46.3012,IR,Āz̄arbāyjān-e Sharqī,Tehran: UTC+3.5
340,The Hague,The Hague,52.08,4.27,NL,Zuid-Holland,Paris: UTC+1(+2)
341,Davao,Davao,7.11,125.63,PH,Davao,Shanghai: UTC+8
342,Marseille,Marseille,43.29,5.375,FR,Provence-Alpes-Côte d’Azur,Paris: UTC+1(+2)
343,Meerut,Meerut,29.0004,77.7,IN,Uttar Pradesh,Mumbai: UTC+5.5
344,Mianyang,Mianyang,31.47,104.77,CN,Sichuan,Shanghai: UTC+8
345,Semarang,Semarang,-6.9666,110.42,ID,Jawa Tengah,Jakarta: UTC+7
346,Farīdābād,Faridabad,28.4333,77.3167,IN,Haryāna,Mumbai: UTC+5.5
347,Novosibirsk,Novosibirsk,55.03,82.96,RU,Novosibirskaya Oblast’,Jakarta: UTC+7
348,Mecca,Mecca,21.43,39.82,SA,Makkah al Mukarramah,Istanbul: UTC+3
349,Dubai,Dubai,25.23,55.28,AE,Dubayy,Dubai: UTC+4
350,Milwaukee,Milwaukee,43.0642,-87.9673,US,Wisconsin,Chicago: UTC-6(-5)
351,Auckland,Auckland,-36.8481,174.763,NZ,Auckland,Auckland: UTC+13(+12)
352,Ma’anshan,Ma'anshan,31.7304,118.48,CN,Anhui,Shanghai: UTC+8
353,Brazzaville,Brazzaville,-4.2592,15.2847,CG,Brazzaville,Lagos: UTC+1
354,Yiyang,Yiyang,28.6004,112.33,CN,Hunan,Shanghai: UTC+8
355,Vārānasi,Varanasi,25.33,83,IN,Uttar Pradesh,Mumbai: UTC+5.5
356,Lubumbashi,Lubumbashi,-11.68,27.48,CD,Haut-Katanga,Johannesburg: UTC+2
357,Juárez,Juarez,31.6904,-106.49,MX,Chihuahua,Denver: UTC-7(-6)
358,Ghāziābād,Ghaziabad,28.6604,77.4084,IN,Uttar Pradesh,Mumbai: UTC+5.5
359,Pretoria,Pretoria,-25.7069,28.2294,ZA,Gauteng,Johannesburg: UTC+2
360,Heze,Heze,35.23,115.45,CN,Shandong,Shanghai: UTC+8
361,Porto,Porto,41.15,-8.62,PT,Porto,London: UTC±0(+1)
362,Āsansol,Asansol,23.6833,86.9833,IN,West Bengal,Mumbai: UTC+5.5
363,Lusaka,Lusaka,-15.4166,28.2833,ZM,Lusaka,Johannesburg: UTC+2
364,Changzhou,Changzhou,31.78,119.97,CN,Jiangsu,Shanghai: UTC+8
365,Mosul,Mosul,36.345,43.145,IQ,Nīnawá,Istanbul: UTC+3
366,Yekaterinburg,Yekaterinburg,56.85,60.6,RU,Sverdlovskaya Oblast’,Karachi: UTC+5
367,Peshawar,Peshawar,34.005,71.535,PK,Khyber Pakhtunkhwa,Karachi: UTC+5
368,Mandalay,Mandalay,21.97,96.085,MM,Mandalay,Yangon: UTC+6.5
369,Jamshedpur,Jamshedpur,22.7875,86.1975,IN,Jharkhand,Mumbai: UTC+5.5
370,Mbuji-Mayi,Mbuji-Mayi,-6.15,23.6,CD,Kasaï Oriental,Johannesburg: UTC+2
371,Madura,Madura,9.92,78.12,IN,Tamil Nādu,Mumbai: UTC+5.5
372,Adana,Adana,36.995,35.32,TR,Adana,Istanbul: UTC+3
373,Sheffield,Sheffield,53.3667,-1.5,UK,Sheffield,London: UTC±0(+1)
374,Jabalpur,Jabalpur,23.1751,79.9551,IN,Madhya Pradesh,Mumbai: UTC+5.5
375,San José,San Jose,9.935,-84.0841,CR,San José,Mexico_City: UTC-6
376,Panama City,Panama City,8.968,-79.533,PA,Panamá,Lima: UTC-5
377,Nizhniy Novgorod,Nizhniy Novgorod,56.333,44.0001,RU,Nizhegorodskaya Oblast’,Istanbul: UTC+3
378,Chifeng,Chifeng,42.27,118.95,CN,Inner Mongolia,Shanghai: UTC+8
379,Duisburg,Duisburg,51.43,6.75,DE,North Rhine-Westphalia,Paris: UTC+1(+2)
380,Munich,Munich,48.1299,11.575,DE,Bavaria,Paris: UTC+1(+2)
381,Huaiyin,Huaiyin,33.58,119.03,CN,Jiangsu,Shanghai: UTC+8
382,Stockholm,Stockholm,59.3508,18.0973,SE,Stockholm,Paris: UTC+1(+2)
383,Makassar,Makassar,-5.14,119.432,ID,Sulawesi Selatan,Shanghai: UTC+8
384,Rājkot,Rajkot,22.31,70.8,IN,Gujarāt,Mumbai: UTC+5.5
385,Dhanbād,Dhanbad,23.8004,86.42,IN,Jharkhand,Mumbai: UTC+5.5
386,Mudanjiang,Mudanjiang,44.575,129.59,CN,Heilongjiang,Shanghai: UTC+8
387,Geneva,Geneva,46.21,6.14,CH,Genève,Paris: UTC+1(+2)
388,Shīrāz,Shiraz,29.63,52.57,IR,Fārs,Tehran: UTC+3.5
389,Huzhou,Huzhou,30.8704,120.1,CN,Zhejiang,Shanghai: UTC+8
390,Beidao,Beidao,34.6,105.92,CN,Gansu,Shanghai: UTC+8
391,Shuangshui,Shuangshui,26.5944,104.8333,CN,Guizhou,Shanghai: UTC+8
392,Düsseldorf,Dusseldorf,51.2204,6.78,DE,North Rhine-Westphalia,Paris: UTC+1(+2)
393,Gaozhou,Gaozhou,21.9204,110.87,CN,Guangdong,Shanghai: UTC+8
394,Sevilla,Sevilla,37.405,-5.98,ES,Andalusia,Paris: UTC+1(+2)
395,Amritsar,Amritsar,31.64,74.87,IN,Punjab,Mumbai: UTC+5.5
396,Vila Velha,Vila Velha,-20.3676,-40.318,BR,Espírito Santo,São_Paulo: UTC-3
397,Vila Velha,Vila Velha,3.2167,-51.2167,BR,Amapá,São_Paulo: UTC-3
398,Almaty,Almaty,43.325,76.915,KZ,Almaty,Dhaka: UTC+6
399,Providence,Providence,41.823,-71.4187,US,Rhode Island,New_York: UTC-5(-4)
400,Warangal,Warangal,18.01,79.58,IN,Telangana,Mumbai: UTC+5.5
401,Rosario,Rosario,-32.9511,-60.6663,AR,Santa Fe,São_Paulo: UTC-3
402,Allahābād,Allahabad,25.455,81.84,IN,Uttar Pradesh,Mumbai: UTC+5.5
403,Benin City,Benin City,6.3405,5.62,NG,Edo,Lagos: UTC+1
404,Jining,Jining,35.4004,116.55,CN,Shandong,Shanghai: UTC+8
405,Maceió,Maceio,-9.62,-35.73,BR,Alagoas,São_Paulo: UTC-3
406,Sofia,Sofia,42.6833,23.3167,BG,Sofia-Grad,Athens: UTC+2(+3)
407,Abbottabad,Abbottabad,34.1495,73.1995,PK,Khyber Pakhtunkhwa,Karachi: UTC+5
408,Benghazi,Benghazi,32.1167,20.0667,LY,Banghāzī,Johannesburg: UTC+2
409,Cilacap,Cilacap,-7.7188,109.0154,ID,Jawa Tengah,Jakarta: UTC+7
410,Prague,Prague,50.0833,14.466,CZ,"Praha, Hlavní Město",Paris: UTC+1(+2)
411,Glasgow,Glasgow,55.8744,-4.2507,SCOT,Glasgow City,London: UTC±0(+1)
412,Leshan,Leshan,29.5671,103.7333,CN,Sichuan,Shanghai: UTC+8
413,Jacksonville,Jacksonville,30.3322,-81.6749,US,Florida,New_York: UTC-5(-4)
414,Ouagadougou,Ouagadougou,12.3703,-1.5247,BF,Centre,Abidjan: UTC±0
415,Ottawa,Ottawa,45.4167,-75.7,CA,Ontario,New_York: UTC-5(-4)
416,Adelaide,Adelaide,-34.935,138.6,AU,South Australia,Adelaide: UTC+10.5(+9.5)
417,Shangrao,Shangrao,28.4704,117.97,CN,Jiangxi,Shanghai: UTC+8
418,Torreón,Torreon,25.5701,-103.42,MX,Coahuila de Zaragoza,Mexico_City: UTC-6
419,Srīnagar,Srinagar,34.1,74.815,IN,Jammu and Kashmīr,Mumbai: UTC+5.5
420,Bezwāda,Bezwada,16.52,80.63,IN,Andhra Pradesh,Mumbai: UTC+5.5
421,Samara,Samara,53.195,50.1513,RU,Samarskaya Oblast’,Dubai: UTC+4
422,Omsk,Omsk,54.99,73.4,RU,Omskaya Oblast’,Dhaka: UTC+6
423,Newcastle,Newcastle,-32.8453,151.815,AU,New South Wales,Sydney: UTC+11(+10)
424,Yulin,Yulin,22.63,110.15,CN,Guangxi,Shanghai: UTC+8
425,Namp’o,Namp'o,38.7669,125.4524,KP,Namp'o,Tokyo: UTC+9
426,Xianyang,Xianyang,34.3456,108.7147,CN,Shaanxi,Shanghai: UTC+8
427,Cagayan de Oro,Cagayan de Oro,8.4508,124.6853,PH,Cagayan de Oro,Shanghai: UTC+8
428,Cần Thơ,Can Tho,10.05,105.77,VN,Cần Thơ,Jakarta: UTC+7
429,Barquisimeto,Barquisimeto,10.05,-69.3,VE,Lara,Caracas: UTC-4
430,Helsinki,Helsinki,60.1756,24.9341,FI,Uusimaa,Athens: UTC+2(+3)
431,Kazan’,Kazan',55.7499,49.1263,RU,Tatarstan,Istanbul: UTC+3
432,Aurangābād,Aurangabad,19.8957,75.3203,IN,Mahārāshtra,Mumbai: UTC+5.5
433,Calgary,Calgary,51.083,-114.08,CA,Alberta,Denver: UTC-7(-6)
434,Ciudad Nezahualcóyotl,Ciudad Nezahualcoyotl,19.41,-99.03,MX,México,Mexico_City: UTC-6
435,Zürich,Zurich,47.38,8.55,CH,Zürich,Paris: UTC+1(+2)
436,Baoding,Baoding,38.8704,115.48,CN,Hebei,Shanghai: UTC+8
437,Zigong,Zigong,29.4,104.78,CN,Sichuan,Shanghai: UTC+8
438,Sharjah,Sharjah,25.3714,55.4065,AE,Ash Shāriqah,Dubai: UTC+4
439,Yerevan,Yerevan,40.1812,44.5136,AM,Yerevan,Dubai: UTC+4
440,Mogadishu,Mogadishu,2.0667,45.3667,SO,Banaadir,Istanbul: UTC+3
441,Tbilisi,Tbilisi,41.725,44.7908,GE,Tbilisi,Dubai: UTC+4
442,Ankang,Ankang,32.68,109.02,CN,Shaanxi,Shanghai: UTC+8
443,Huambo,Huambo,-12.75,15.76,AO,Huambo,Lagos: UTC+1
444,Ikare,Ikare,7.5304,5.76,NG,Ondo,Lagos: UTC+1
445,Belgrade,Belgrade,44.8186,20.468,RS,Beograd,Paris: UTC+1(+2)
446,Salt Lake City,Salt Lake City,40.7774,-111.93,US,Utah,Denver: UTC-7(-6)
447,Bhilai,Bhilai,21.2167,81.4333,IN,Chhattīsgarh,Mumbai: UTC+5.5
448,Jinhua,Jinhua,29.12,119.65,CN,Zhejiang,Shanghai: UTC+8
449,Chelyabinsk,Chelyabinsk,55.155,61.4387,RU,Chelyabinskaya Oblast’,Karachi: UTC+5
450,Natal,Natal,-5.78,-35.24,BR,Rio Grande do Norte,São_Paulo: UTC-3
451,Dushanbe,Dushanbe,38.56,68.7739,TJ,Dushanbe,Karachi: UTC+5
452,Copenhagen,Copenhagen,55.6786,12.5635,DK,Hovedstaden,Paris: UTC+1(+2)
453,Changwon,Changwon,35.2191,128.5836,KR,Gyeongnam,Tokyo: UTC+9
454,Zhuzhou,Zhuzhou,27.83,113.15,CN,Hunan,Shanghai: UTC+8
455,Suwon,Suwon,37.2578,127.0109,KR,Gyeonggi,Tokyo: UTC+9
456,Nashville,Nashville,36.1715,-86.7843,US,Tennessee,Chicago: UTC-6(-5)
457,Vereeniging,Vereeniging,-26.6496,27.96,ZA,Gauteng,Johannesburg: UTC+2
458,Xiangyang,Xiangyang,32.02,112.13,CN,Hubei,Shanghai: UTC+8
459,Memphis,Memphis,35.1046,-89.9773,US,Tennessee,Chicago: UTC-6(-5)
460,Ulsan,Ulsan,35.5467,129.317,KR,Ulsan,Tokyo: UTC+9
461,Amman,Amman,31.95,35.9333,JO,Al ‘Āşimah,Istanbul: UTC+3
462,Mizhou,Mizhou,35.99,119.3801,CN,Shandong,Shanghai: UTC+8
463,Richmond,Richmond,37.5295,-77.4756,US,Virginia,New_York: UTC-5(-4)
464,Dublin,Dublin,53.3331,-6.2489,IE,Dublin,London: UTC±0(+1)
465,Edmonton,Edmonton,53.55,-113.5,CA,Alberta,Denver: UTC-7(-6)
466,Solāpur,Solapur,17.6704,75.9,IN,Mahārāshtra,Mumbai: UTC+5.5
467,Rostov-na-Donu,Rostov-na-Donu,47.2346,39.7127,RU,Rostovskaya Oblast’,Istanbul: UTC+3
468,Dnipro,Dnipro,48.48,35,UA,Dnipropetrovs’ka Oblast’,Athens: UTC+2(+3)
469,Xining,Xining,36.62,101.77,CN,Qinghai,Shanghai: UTC+8
470,Zhangjiakou,Zhangjiakou,40.83,114.93,CN,Hebei,Shanghai: UTC+8
471,Lille,Lille,50.65,3.08,FR,Hauts-de-France,Paris: UTC+1(+2)
472,Ranchi,Ranchi,23.37,85.33,IN,Jharkhand,Mumbai: UTC+5.5
473,Gaziantep,Gaziantep,37.075,37.385,TR,Gaziantep,Istanbul: UTC+3
474,Monrovia,Monrovia,6.3106,-10.8048,LR,Montserrado,Abidjan: UTC±0
475,São Luís,Sao Luis,-2.516,-44.266,BR,Maranhão,São_Paulo: UTC-3
476,Amsterdam,Amsterdam,52.35,4.9166,NL,Noord-Holland,Paris: UTC+1(+2)
477,Jerusalem,Jerusalem,31.7784,35.2066,IL,Jerusalem,Jerusalem: UTC+2(+3)
478,New Orleans,New Orleans,30.0687,-89.9288,US,Louisiana,Chicago: UTC-6(-5)
479,Guatemala City,Guatemala City,14.6211,-90.527,GT,Guatemala,Mexico_City: UTC-6
480,Zhuhai,Zhuhai,22.2769,113.5678,CN,Guangdong,Shanghai: UTC+8
481,Florianópolis,Florianopolis,-27.58,-48.52,BR,Santa Catarina,São_Paulo: UTC-3
482,Port Elizabeth,Port Elizabeth,-33.97,25.6,ZA,Eastern Cape,Johannesburg: UTC+2
483,Jiamusi,Jiamusi,46.83,130.35,CN,Heilongjiang,Shanghai: UTC+8
484,Port Harcourt,Port Harcourt,4.81,7.01,NG,Rivers,Lagos: UTC+1
485,Raleigh,Raleigh,35.8324,-78.6438,US,North Carolina,New_York: UTC-5(-4)
486,Ufa,Ufa,54.79,56.04,RU,Bashkortostan,Karachi: UTC+5
487,Hengyang,Hengyang,26.88,112.59,CN,Hunan,Shanghai: UTC+8
488,Benxi,Benxi,41.3304,123.75,CN,Liaoning,Shanghai: UTC+8
489,Louisville,Louisville,38.1663,-85.6485,US,Kentucky,New_York: UTC-5(-4)
490,Haifa,Haifa,32.8204,34.98,IL,Haifa,Jerusalem: UTC+2(+3)
491,Medina,Medina,24.5,39.58,SA,Al Madīnah al Munawwarah,Istanbul: UTC+3
492,Bucaramanga,Bucaramanga,7.1301,-73.1259,CO,Santander,Lima: UTC-5
493,Maracay,Maracay,10.2469,-67.5958,VE,Aragua,Caracas: UTC-4
494,Rotterdam,Rotterdam,51.92,4.48,NL,Zuid-Holland,Paris: UTC+1(+2)
495,Homs,Homs,34.73,36.72,SY,Ḩimş,Istanbul: UTC+3
496,Cologne,Cologne,50.93,6.95,DE,North Rhine-Westphalia,Paris: UTC+1(+2)
497,Qinhuangdao,Qinhuangdao,39.9304,119.62,CN,Hebei,Shanghai: UTC+8
498,Fès,Fes,34.0546,-5.0004,MA,Fès-Meknès,Casablanca: UTC±0(+1)
499,Aden,Aden,12.7797,45.0095,YE,‘Adan,Istanbul: UTC+3
500,Cochabamba,Cochabamba,-17.41,-66.17,BO,Cochabamba,Caracas: UTC-4
501,Yongzhou,Yongzhou,26.2304,111.62,CN,Hunan,Shanghai: UTC+8
502,Baoshan,Baoshan,25.12,99.15,CN,Yunnan,Shanghai: UTC+8
503,Quảng Hà,Quang Ha,16.06,108.25,VN,Quảng Nam,Jakarta: UTC+7
504,Kitaku,Kitaku,33.8704,130.82,JP,Fukuoka,Tokyo: UTC+9
505,Perm’,Perm',58,56.25,RU,Permskiy Kray,Karachi: UTC+5
506,Ahvāz,Ahvaz,31.28,48.72,IR,Khūzestān,Tehran: UTC+3.5
507,Jodhpur,Jodhpur,26.2918,73.0168,IN,Rājasthān,Mumbai: UTC+5.5
508,San Luis Potosí,San Luis Potosi,22.17,-101,MX,San Luis Potosí,Mexico_City: UTC-6
509,Odesa,Odesa,46.49,30.71,UA,Odes’ka Oblast’,Athens: UTC+2(+3)
510,Yinchuan,Yinchuan,38.468,106.273,CN,Ningxia,Shanghai: UTC+8
511,N’Djamena,N'Djamena,12.1131,15.0491,TD,Ville de N’Djaména,Lagos: UTC+1
512,Jiaxing,Jiaxing,30.7704,120.75,CN,Zhejiang,Shanghai: UTC+8
513,Joinvile,Joinvile,-26.32,-48.8399,BR,Santa Catarina,São_Paulo: UTC-3
514,Donets’k,Donets'k,48,37.83,UA,Donets’ka Oblast’,Athens: UTC+2(+3)
515,Guilin,Guilin,25.28,110.28,CN,Guangxi,Shanghai: UTC+8
516,Dahūk,Dahuk,36.8667,43,KRD,Dahūk,Istanbul: UTC+3
517,Volgograd,Volgograd,48.71,44.5,RU,Volgogradskaya Oblast’,Istanbul: UTC+3
518,Guwāhāti,Guwahati,26.16,91.77,IN,Assam,Mumbai: UTC+5.5
519,Yichun,Yichun,27.8333,114.4,CN,Jiangxi,Shanghai: UTC+8
520,Yangquan,Yangquan,37.87,113.57,CN,Shanxi,Shanghai: UTC+8
521,Natal,Natal,-6.9838,-60.2699,BR,Amazonas,Caracas: UTC-4
522,Chandigarh,Chandigarh,30.72,76.78,IN,Chandīgarh,Mumbai: UTC+5.5
523,Gwalior,Gwalior,26.23,78.1801,IN,Madhya Pradesh,Mumbai: UTC+5.5
524,Hamamatsu,Hamamatsu,34.7181,137.7327,JP,Shizuoka,Tokyo: UTC+9
525,Qom,Qom,34.65,50.95,IR,Qom,Tehran: UTC+3.5
526,Jixi,Jixi,45.3,130.97,CN,Heilongjiang,Shanghai: UTC+8
527,Mérida,Merida,20.9666,-89.6166,MX,Yucatán,Mexico_City: UTC-6
528,Xin’an,Xin'an,34.38,118.35,CN,Jiangsu,Shanghai: UTC+8
529,Querétaro,Queretaro,20.63,-100.38,MX,Querétaro,Mexico_City: UTC-6
530,Pingxiang,Pingxiang,27.62,113.85,CN,Jiangxi,Shanghai: UTC+8
531,João Pessoa,Joao Pessoa,-7.1011,-34.8761,BR,Paraíba,São_Paulo: UTC-3
532,Klang,Klang,3.0204,101.55,MY,Selangor,Shanghai: UTC+8
533,Jinzhou,Jinzhou,41.1204,121.1,CN,Liaoning,Shanghai: UTC+8
534,Oklahoma City,Oklahoma City,35.4676,-97.5137,US,Oklahoma,Chicago: UTC-6(-5)
535,Salerno,Salerno,40.6804,14.7699,IT,Campania,Paris: UTC+1(+2)
536,Thiruvananthapuram,Thiruvananthapuram,8.5,76.95,IN,Kerala,Mumbai: UTC+5.5
537,Calicut,Calicut,11.2504,75.77,IN,Kerala,Mumbai: UTC+5.5
538,Trichinopoly,Trichinopoly,10.81,78.69,IN,Tamil Nādu,Mumbai: UTC+5.5
539,Ogbomoso,Ogbomoso,8.13,4.24,NG,Oyo,Lagos: UTC+1
540,General Santos,General Santos,6.1108,125.1747,PH,General Santos,Shanghai: UTC+8
541,Huế,Hue,16.47,107.58,VN,Thừa Thiên-Huế,Jakarta: UTC+7
542,Bacolod,Bacolod,10.6317,122.9817,PH,Bacolod,Shanghai: UTC+8
543,Nantong,Nantong,32.0304,120.825,CN,Jiangsu,Shanghai: UTC+8
544,Tegucigalpa,Tegucigalpa,14.102,-87.2175,HN,Francisco Morazán,Mexico_City: UTC-6
545,Foshan,Foshan,23.0301,113.12,CN,Guangdong,Shanghai: UTC+8
546,Sŏngnam,Songnam,37.4386,127.1378,KR,Gyeonggi,Tokyo: UTC+9
547,Bridgeport,Bridgeport,41.1918,-73.1953,US,Connecticut,New_York: UTC-5(-4)
548,Kingston,Kingston,17.9771,-76.7674,JM,Kingston,Lima: UTC-5
549,Nay Pyi Taw,Nay Pyi Taw,19.7666,96.1186,MM,Nay Pyi Taw,Yangon: UTC+6.5
550,Nice,Nice,43.715,7.265,FR,Provence-Alpes-Côte d’Azur,Paris: UTC+1(+2)
551,Buffalo,Buffalo,42.9017,-78.8487,US,New York,New_York: UTC-5(-4)
552,Erbil,Erbil,36.179,44.0086,KRD,Arbīl,Istanbul: UTC+3
553,Krasnoyarsk,Krasnoyarsk,56.014,92.866,RU,Krasnoyarskiy Kray,Jakarta: UTC+7
554,Djibouti,Djibouti,11.595,43.148,DJ,Djibouti,Istanbul: UTC+3
555,Olinda,Olinda,-8,-34.85,BR,Pernambuco,São_Paulo: UTC-3
556,Managua,Managua,12.153,-86.2685,NI,Managua,Mexico_City: UTC-6
557,Antwerp,Antwerp,51.2204,4.415,BE,Flanders,Paris: UTC+1(+2)
558,Konya,Konya,37.875,32.475,TR,Konya,Istanbul: UTC+3
559,Bogor,Bogor,-6.57,106.75,ID,Jawa Barat,Jakarta: UTC+7
560,Niamey,Niamey,13.5167,2.1167,NE,Niamey,Lagos: UTC+1
561,Hartford,Hartford,41.7661,-72.6834,US,Connecticut,New_York: UTC-5(-4)
562,Huaibei,Huaibei,33.9504,116.75,CN,Anhui,Shanghai: UTC+8
563,Xinyu,Xinyu,27.8,114.93,CN,Jiangxi,Shanghai: UTC+8
564,Teresina,Teresina,-5.095,-42.78,BR,Piauí,São_Paulo: UTC-3
565,Naha,Naha,26.2072,127.673,JP,Okinawa,Tokyo: UTC+9
566,Goyang,Goyang,37.6527,126.8372,KR,Gyeonggi,Tokyo: UTC+9
567,Nangandao,Nangandao,35.3204,113.87,CN,Henan,Shanghai: UTC+8
568,Yibin,Yibin,28.77,104.57,CN,Sichuan,Shanghai: UTC+8
569,Aba,Aba,5.1004,7.35,NG,Abia,Lagos: UTC+1
570,Maiduguri,Maiduguri,11.85,13.16,NG,Borno,Lagos: UTC+1
571,Tirana,Tirana,41.3275,19.8189,AL,Tiranë,Paris: UTC+1(+2)
572,Kathmandu,Kathmandu,27.7167,85.3166,NP,Bāgmatī,Kathmandu: UTC+5.75
573,Az Zarqā’,Az Zarqa',32.07,36.1,JO,Az Zarqā’,Istanbul: UTC+3
574,Tarsus,Tarsus,36.9204,34.88,TR,Mersin,Istanbul: UTC+3
575,Bengbu,Bengbu,32.95,117.33,CN,Anhui,Shanghai: UTC+8
576,Mendoza,Mendoza,-32.8833,-68.8166,AR,Mendoza,São_Paulo: UTC-3
577,Hubli,Hubli,15.36,75.125,IN,Karnātaka,Mumbai: UTC+5.5
578,Concepción,Concepcion,-36.83,-73.05,CL,Biobío,Santiago: UTC-3(-4)
579,Zaria,Zaria,11.08,7.71,NG,Kaduna,Lagos: UTC+1
580,Dengtalu,Dengtalu,36.08,114.35,CN,Henan,Shanghai: UTC+8
581,Cartagena,Cartagena,10.3997,-75.5144,CO,Bolívar,Lima: UTC-5
582,Mysore,Mysore,12.31,76.66,IN,Karnātaka,Mumbai: UTC+5.5
583,Ulaanbaatar,Ulaanbaatar,47.9167,106.9166,MN,Ulaanbaatar,Shanghai: UTC+8
584,Mexicali,Mexicali,32.65,-115.48,MX,Baja California,Los_Angeles: UTC-8(-7)
585,Tongliao,Tongliao,43.62,122.27,CN,Inner Mongolia,Shanghai: UTC+8
586,Mombasa,Mombasa,-4.04,39.6899,KE,Mombasa,Istanbul: UTC+3
587,Newcastle upon Tyne,Newcastle upon Tyne,55.0004,-1.6,UK,Newcastle upon Tyne,London: UTC±0(+1)
588,Novo Hamburgo,Novo Hamburgo,-29.7096,-51.14,BR,Rio Grande do Sul,São_Paulo: UTC-3
589,Callao,Callao,-12.07,-77.135,PE,Callao,Lima: UTC-5
590,Bilbao,Bilbao,43.25,-2.93,EUS,Basque Country,Paris: UTC+1(+2)
591,Johor Bahru,Johor Bahru,1.48,103.73,MY,Johor,Shanghai: UTC+8
592,Raipur,Raipur,21.235,81.635,IN,Chhattīsgarh,Mumbai: UTC+5.5
593,Xiaoxita,Xiaoxita,30.7,111.28,CN,Hubei,Shanghai: UTC+8
594,Fort Worth,Fort Worth,32.7812,-97.3472,US,Texas,Chicago: UTC-6(-5)
595,Salem,Salem,11.67,78.1801,IN,Tamil Nādu,Mumbai: UTC+5.5
596,Yangjiang,Yangjiang,21.8504,111.97,CN,Guangdong,Shanghai: UTC+8
597,Marrakech,Marrakech,31.63,-8,MA,Marrakech-Safi,Casablanca: UTC±0(+1)
598,Kaifeng Chengguanzhen,Kaifeng Chengguanzhen,34.85,114.35,CN,Henan,Shanghai: UTC+8
599,Dandong,Dandong,40.1436,124.3936,CN,Liaoning,Shanghai: UTC+8
600,Al Başrah,Al Basrah,30.5135,47.8136,IQ,Al Başrah,Istanbul: UTC+3
601,Aguascalientes,Aguascalientes,21.8795,-102.29,MX,Aguascalientes,Mexico_City: UTC-6
602,Tucson,Tucson,32.1545,-110.878,US,Arizona,Phoenix: UTC-7
603,Okayama,Okayama,34.672,133.9171,JP,Okayama,Tokyo: UTC+9
604,Bucheon,Bucheon,37.4989,126.7831,KR,Gyeonggi,Tokyo: UTC+9
605,Xuanzhou,Xuanzhou,30.9525,118.7553,CN,Anhui,Shanghai: UTC+8
606,Bandar Lampung,Bandar Lampung,-5.43,105.27,ID,Lampung,Jakarta: UTC+7
607,Rizhao,Rizhao,35.4304,119.45,CN,Shandong,Shanghai: UTC+8
608,Palermo,Palermo,38.125,13.35,IT,Sicilia,Paris: UTC+1(+2)
609,Caerdydd,Caerdydd,51.5,-3.225,CYMRU,Cardiff,London: UTC±0(+1)
610,Kigali,Kigali,-1.9536,30.0605,RW,Kigali,Johannesburg: UTC+2
611,Tampico,Tampico,22.3,-97.87,MX,Tamaulipas,Mexico_City: UTC-6
612,Jiaozuo,Jiaozuo,35.25,113.22,CN,Henan,Shanghai: UTC+8
613,Padang,Padang,-0.96,100.36,ID,Sumatera Barat,Jakarta: UTC+7
614,Jalandhar,Jalandhar,31.3349,75.569,IN,Punjab,Mumbai: UTC+5.5
615,Zhenjiang,Zhenjiang,32.22,119.43,CN,Jiangsu,Shanghai: UTC+8
616,Valparaíso,Valparaiso,-33.0478,-71.621,CL,Valparaíso,Santiago: UTC-3(-4)
617,Pingdingshan,Pingdingshan,33.7304,113.3,CN,Henan,Shanghai: UTC+8
618,Zunyi,Zunyi,27.7,106.92,CN,Guizhou,Shanghai: UTC+8
619,Anshun,Anshun,26.2504,105.93,CN,Guizhou,Shanghai: UTC+8
620,Toulouse,Toulouse,43.62,1.4499,FR,Occitanie,Paris: UTC+1(+2)
621,El Paso,El Paso,31.8479,-106.431,US,Texas,Denver: UTC-7(-6)
622,Iguaçu,Iguacu,-22.74,-43.47,BR,Rio de Janeiro,São_Paulo: UTC-3
623,Bhubaneshwar,Bhubaneshwar,20.2704,85.8274,IN,Odisha,Mumbai: UTC+5.5
624,Voronezh,Voronezh,51.73,39.27,RU,Voronezhskaya Oblast’,Istanbul: UTC+3
625,Saratov,Saratov,51.58,46.03,RU,Saratovskaya Oblast’,Dubai: UTC+4
626,Yuci,Yuci,37.6804,112.73,CN,Shanxi,Shanghai: UTC+8
627,Yancheng,Yancheng,33.3856,120.1253,CN,Jiangsu,Shanghai: UTC+8
628,Bishkek,Bishkek,42.8731,74.5852,KG,Bishkek,Dhaka: UTC+6
629,Oslo,Oslo,59.9167,10.75,NO,Oslo,Paris: UTC+1(+2)
630,Cuernavaca,Cuernavaca,18.9211,-99.24,MX,Morelos,Mexico_City: UTC-6
631,Linfen,Linfen,36.0803,111.52,CN,Shanxi,Shanghai: UTC+8
632,Honolulu,Honolulu,21.3294,-157.846,US,Hawaii,Honolulu: UTC-10
633,Bangui,Bangui,4.3666,18.5583,CF,Bangui,Lagos: UTC+1
634,Warri,Warri,5.52,5.76,NG,Delta,Lagos: UTC+1
635,Basel,Basel,47.5804,7.59,CH,Basel-Stadt,Paris: UTC+1(+2)
636,San Miguel de Tucumán,San Miguel de Tucuman,-26.816,-65.2166,AR,Tucumán,São_Paulo: UTC-3
637,Kermānshāh,Kermanshah,34.38,47.06,KRD,Kermānshāh,Tehran: UTC+3.5
638,Thessaloníki,Thessaloniki,40.6961,22.885,GR,Kentrikí Makedonía,Athens: UTC+2(+3)
639,Omaha,Omaha,41.2628,-96.0498,US,Nebraska,Chicago: UTC-6(-5)
640,Freetown,Freetown,8.47,-13.2342,SL,Western Area,Abidjan: UTC±0
641,Kota,Kota,25.18,75.835,IN,Rājasthān,Mumbai: UTC+5.5
642,Braga,Braga,41.555,-8.4213,PT,Braga,London: UTC±0(+1)
643,Jhānsi,Jhansi,25.453,78.5575,IN,Uttar Pradesh,Mumbai: UTC+5.5
644,Rongjiawan,Rongjiawan,29.3801,113.1,CN,Hunan,Shanghai: UTC+8
645,Nottingham,Nottingham,52.9703,-1.17,UK,Nottingham,London: UTC±0(+1)
646,Agadir,Agadir,30.44,-9.62,MA,Souss-Massa,Casablanca: UTC±0(+1)
647,Butterworth,Butterworth,5.4171,100.4,MY,Pulau Pinang,Shanghai: UTC+8
648,Bareilly,Bareilly,28.3454,79.42,IN,Uttar Pradesh,Mumbai: UTC+5.5
649,Jos,Jos,9.93,8.89,NG,Plateau,Lagos: UTC+1
650,Xingyi,Xingyi,25.0904,104.89,CN,Guizhou,Shanghai: UTC+8
651,Cebu City,Cebu City,10.32,123.9001,PH,Cebu,Shanghai: UTC+8
652,Arequipa,Arequipa,-16.42,-71.53,PE,Arequipa,Lima: UTC-5
653,Liverpool,Liverpool,53.416,-2.918,UK,Liverpool,London: UTC±0(+1)
654,Wuhu,Wuhu,31.3504,118.37,CN,Anhui,Shanghai: UTC+8
655,Langfang,Langfang,39.5204,116.68,CN,Hebei,Shanghai: UTC+8
656,Rājshāhi,Rajshahi,24.375,88.605,BD,Rājshāhi,Dhaka: UTC+6
657,Zhaotong,Zhaotong,27.3204,103.72,CN,Yunnan,Shanghai: UTC+8
658,Culiacán,Culiacan,24.83,-107.38,MX,Sinaloa,Phoenix: UTC-7
659,Valencia,Valencia,39.485,-0.4,ES,Valencia,Paris: UTC+1(+2)
660,Lingyuan,Lingyuan,41.24,119.4011,CN,Liaoning,Shanghai: UTC+8
661,Cuiabá,Cuiaba,-15.5696,-56.085,BR,Mato Grosso,Caracas: UTC-4
662,Quy Nhơn,Quy Nhon,13.78,109.18,VN,Bình Định,Jakarta: UTC+7
663,Malang,Malang,-7.98,112.61,ID,Jawa Timur,Jakarta: UTC+7
664,Alīgarh,Aligarh,27.8922,78.0618,IN,Uttar Pradesh,Mumbai: UTC+5.5
665,L’viv,L'viv,49.835,24.03,UA,L’vivs’ka Oblast’,Athens: UTC+2(+3)
666,Bordeaux,Bordeaux,44.85,-0.595,FR,Nouvelle-Aquitaine,Paris: UTC+1(+2)
667,McAllen,McAllen,26.2273,-98.2471,US,Texas,Chicago: UTC-6(-5)
668,Baojishi,Baojishi,34.38,107.15,CN,Shaanxi,Shanghai: UTC+8
669,Pekanbaru,Pekanbaru,0.565,101.425,ID,Riau,Jakarta: UTC+7
670,Oran,Oran,35.71,-0.62,DZ,Oran,Lagos: UTC+1
671,Yingkou,Yingkou,40.6703,122.28,CN,Liaoning,Shanghai: UTC+8
672,Bhiwandi,Bhiwandi,19.35,73.13,IN,Mahārāshtra,Mumbai: UTC+5.5
673,Liaoyang,Liaoyang,41.28,123.18,CN,Liaoning,Shanghai: UTC+8
674,Chihuahua,Chihuahua,28.645,-106.085,MX,Chihuahua,Mexico_City: UTC-6
675,Jammu,Jammu,32.7118,74.8467,IN,Jammu and Kashmīr,Mumbai: UTC+5.5
676,Melaka,Melaka,2.2064,102.2465,MY,Melaka,Shanghai: UTC+8
677,Zaporizhzhya,Zaporizhzhya,47.8573,35.1768,UA,Zaporiz’ka Oblast’,Athens: UTC+2(+3)
678,Morādābād,Moradabad,28.8418,78.7568,IN,Uttar Pradesh,Mumbai: UTC+5.5
679,Antalya,Antalya,36.89,30.7,TR,Antalya,Istanbul: UTC+3
680,Islamabad,Islamabad,33.7,73.1666,PK,Islāmābād,Karachi: UTC+5
681,Al Ḩudaydah,Al Hudaydah,14.7979,42.953,YE,Al Ḩudaydah,Istanbul: UTC+3
682,Campo Grande,Campo Grande,-20.45,-54.6166,BR,Mato Grosso do Sul,Caracas: UTC-4
683,Shaoxing,Shaoxing,30.0004,120.57,CN,Zhejiang,Shanghai: UTC+8
684,Yichun,Yichun,47.6999,128.9,CN,Heilongjiang,Shanghai: UTC+8
685,Mangalore,Mangalore,12.9,74.85,IN,Karnātaka,Mumbai: UTC+5.5
686,Wuppertal,Wuppertal,51.25,7.17,DE,North Rhine-Westphalia,Paris: UTC+1(+2)
687,Cheongju,Cheongju,36.6439,127.5012,KR,Chungbuk,Tokyo: UTC+9
688,Zamboanga City,Zamboanga City,6.92,122.08,PH,Zamboanga,Shanghai: UTC+8
689,Hamhŭng,Hamhung,39.9101,127.5454,KP,Hamnam,Tokyo: UTC+9
690,Fuyang,Fuyang,30.0533,119.9519,CN,Zhejiang,Shanghai: UTC+8
691,Ilorin,Ilorin,8.49,4.55,NG,Kwara,Lagos: UTC+1
692,Saarbrücken,Saarbrucken,49.2504,6.97,DE,Saarland,Paris: UTC+1(+2)
693,Fuxin,Fuxin,42.0105,121.66,CN,Liaoning,Shanghai: UTC+8
694,Shiyan,Shiyan,32.57,110.78,CN,Hubei,Shanghai: UTC+8
695,Quetta,Quetta,30.22,67.025,PK,Balochistān,Karachi: UTC+5
696,Trujillo,Trujillo,-8.12,-79.02,PE,La Libertad,Lima: UTC-5
697,Kananga,Kananga,-5.89,22.4,CD,Kasaï Central,Johannesburg: UTC+2
698,Trabzon,Trabzon,40.98,39.72,TR,Trabzon,Istanbul: UTC+3
699,Cotonou,Cotonou,6.4,2.52,BJ,Littoral,Lagos: UTC+1
700,Jincheng,Jincheng,35.5004,112.83,CN,Shanxi,Shanghai: UTC+8
701,Albuquerque,Albuquerque,35.1053,-106.646,US,New Mexico,Denver: UTC-7(-6)
702,Łódź,Lodz,51.775,19.4514,PL,Łódzkie,Paris: UTC+1(+2)
703,Kraków,Krakow,50.06,19.96,PL,Małopolskie,Paris: UTC+1(+2)
704,Vientiane,Vientiane,17.9667,102.6,LA,Viangchan,Jakarta: UTC+7
705,Saltillo,Saltillo,25.42,-101.005,MX,Coahuila de Zaragoza,Mexico_City: UTC-6
706,São José dos Campos,Sao Jose dos Campos,-23.2,-45.8799,BR,São Paulo,São_Paulo: UTC-3
707,Hŭngnam,Hungnam,39.8231,127.6232,KP,Hamnam,Tokyo: UTC+9
708,Ta‘izz,Ta`izz,13.6045,44.0394,YE,Ta‘izz,Istanbul: UTC+3
709,Pietermaritzburg,Pietermaritzburg,-29.61,30.39,ZA,KwaZulu-Natal,Johannesburg: UTC+2
710,Tangier,Tangier,35.7473,-5.8327,MA,Tanger-Tétouan-Al Hoceïma,Casablanca: UTC±0(+1)
711,Hsinchu,Hsinchu,24.8168,120.9767,TW,Hsinchu,Shanghai: UTC+8
712,Changhua,Changhua,24.0734,120.5134,TW,Changhua,Shanghai: UTC+8
713,Kolhāpur,Kolhapur,16.7,74.22,IN,Mahārāshtra,Mumbai: UTC+5.5
714,Farg‘ona,Farg`ona,40.39,71.78,UZ,Farg‘ona,Karachi: UTC+5
715,Namangan,Namangan,41,71.67,UZ,Namangan,Karachi: UTC+5
716,Liège,Liege,50.63,5.58,BE,Wallonia,Paris: UTC+1(+2)
717,Ciudad Guayana,Ciudad Guayana,8.37,-62.62,VE,Bolívar,Caracas: UTC-4
718,Birmingham,Birmingham,33.5277,-86.7987,US,Alabama,Chicago: UTC-6(-5)
719,Hegang,Hegang,47.4,130.37,CN,Heilongjiang,Shanghai: UTC+8
720,Riga,Riga,56.95,24.1,LV,Rīga,Athens: UTC+2(+3)
721,Nouakchott,Nouakchott,18.0864,-15.9753,MR,Nouakchott,Abidjan: UTC±0
722,Naga City,Naga City,13.6192,123.1814,PH,Naga,Shanghai: UTC+8
723,Gdańsk,Gdansk,54.36,18.64,PL,Pomorskie,Paris: UTC+1(+2)
724,Ansan,Ansan,37.3481,126.8595,KR,Gyeonggi,Tokyo: UTC+9
725,Nuremberg,Nuremberg,49.45,11.08,DE,Bavaria,Paris: UTC+1(+2)
726,Oyo,Oyo,7.8504,3.93,NG,Oyo,Lagos: UTC+1
727,Muscat,Muscat,23.6133,58.5933,OM,Masqaţ,Dubai: UTC+4
728,Amrāvati,Amravati,20.95,77.77,IN,Mahārāshtra,Mumbai: UTC+5.5
729,Denpasar,Denpasar,-8.65,115.22,ID,Bali,Shanghai: UTC+8
730,Sokoto,Sokoto,13.06,5.24,NG,Sokoto,Lagos: UTC+1
731,Beihai,Beihai,21.4804,109.1,CN,Guangxi,Shanghai: UTC+8
732,Ashgabat,Ashgabat,37.95,58.3833,TM,Ashgabat,Karachi: UTC+5
733,Bremen,Bremen,53.08,8.8,DE,Bremen,Paris: UTC+1(+2)
734,As Sulaymānīyah,As Sulaymaniyah,35.5613,45.4309,KRD,As Sulaymānīyah,Istanbul: UTC+3
735,Zagreb,Zagreb,45.8,16,HR,"Zagreb, Grad",Paris: UTC+1(+2)
736,Hannover,Hannover,52.367,9.7167,DE,Lower Saxony,Paris: UTC+1(+2)
737,Cúcuta,Cucuta,7.92,-72.52,CO,Norte de Santander,Lima: UTC-5
738,Hamilton,Hamilton,43.25,-79.83,CA,Ontario,New_York: UTC-5(-4)
739,Moshi,Moshi,-3.3396,37.34,TZ,Kilimanjaro,Istanbul: UTC+3
740,Shaoguan,Shaoguan,24.8,113.58,CN,Guangdong,Shanghai: UTC+8
741,Kumamoto,Kumamoto,32.8009,130.7006,JP,Kumamoto,Tokyo: UTC+9
742,Dayton,Dayton,39.7797,-84.1998,US,Ohio,New_York: UTC-5(-4)
743,Xinpu,Xinpu,34.6004,119.17,CN,Jiangsu,Shanghai: UTC+8
744,Acapulco de Juárez,Acapulco de Juarez,16.85,-99.916,MX,Guerrero,Mexico_City: UTC-6
745,Kandahār,Kandahar,31.61,65.6949,AF,Kandahār,Kabul: UTC+4.5
746,Dehra Dūn,Dehra Dun,30.3204,78.05,IN,Uttarakhand,Mumbai: UTC+5.5
747,Rochester,Rochester,43.168,-77.6162,US,New York,New_York: UTC-5(-4)
748,Jeonju,Jeonju,35.8314,127.1404,KR,Jeonbuk,Tokyo: UTC+9
749,Samarkand,Samarkand,39.67,66.945,UZ,Samarqand,Karachi: UTC+5
750,Qingyuan,Qingyuan,23.7004,113.0301,CN,Guangdong,Shanghai: UTC+8
751,Sarasota,Sarasota,27.3386,-82.543,US,Florida,New_York: UTC-5(-4)
752,Changzhi,Changzhi,36.1839,113.1053,CN,Shanxi,Shanghai: UTC+8
753,Tol’yatti,Tol'yatti,53.4804,49.53,RU,Samarskaya Oblast’,Dubai: UTC+4
754,Jaboatão,Jaboatao,-8.11,-35.02,BR,Pernambuco,São_Paulo: UTC-3
755,Shizuoka,Shizuoka,34.9858,138.3854,JP,Shizuoka,Tokyo: UTC+9
756,Bulawayo,Bulawayo,-20.17,28.58,ZW,Bulawayo,Johannesburg: UTC+2
757,Soledad,Soledad,10.92,-74.77,CO,Atlántico,Lima: UTC-5
758,Fresno,Fresno,36.7831,-119.794,US,California,Los_Angeles: UTC-8(-7)
759,Meknès,Meknes,33.9004,-5.56,MA,Fès-Meknès,Casablanca: UTC±0(+1)
760,Sarajevo,Sarajevo,43.85,18.383,BA,"Bosnia and Herzegovina, Federation of",Paris: UTC+1(+2)
761,La Plata,La Plata,-34.9096,-57.96,AR,Buenos Aires,São_Paulo: UTC-3
762,Mālegaon,Malegaon,20.5604,74.525,IN,Mahārāshtra,Mumbai: UTC+5.5
763,Enugu,Enugu,6.45,7.5,NG,Enugu,Lagos: UTC+1
764,Chisinau,Chisinau,47.005,28.8577,MD,Chişinău,Athens: UTC+2(+3)
765,Huangshi,Huangshi,30.22,115.1,CN,Hubei,Shanghai: UTC+8
766,Aracaju,Aracaju,-10.9,-37.12,BR,Sergipe,São_Paulo: UTC-3
767,Allentown,Allentown,40.5961,-75.4755,US,Pennsylvania,New_York: UTC-5(-4)
768,Bonn,Bonn,50.7205,7.08,DE,North Rhine-Westphalia,Paris: UTC+1(+2)
769,San Pedro Sula,San Pedro Sula,15.5,-88.03,HN,Cortés,Mexico_City: UTC-6
770,Nellore,Nellore,14.44,79.9899,IN,Andhra Pradesh,Mumbai: UTC+5.5
771,Catania,Catania,37.5,15.08,IT,Sicilia,Paris: UTC+1(+2)
772,Gorakhpur,Gorakhpur,26.7504,83.38,IN,Uttar Pradesh,Mumbai: UTC+5.5
773,Ipoh,Ipoh,4.6,101.065,MY,Perak,Shanghai: UTC+8
774,Ch’ŏngjin,Ch'ongjin,41.7846,129.79,KP,Hambuk,Tokyo: UTC+9
775,Tulsa,Tulsa,36.1284,-95.9043,US,Oklahoma,Chicago: UTC-6(-5)
776,Utsunomiya,Utsunomiya,36.55,139.87,JP,Tochigi,Tokyo: UTC+9
777,Puyang Chengguanzhen,Puyang Chengguanzhen,35.7004,114.98,CN,Henan,Shanghai: UTC+8
778,An Najaf,An Najaf,32.0003,44.3354,IQ,An Najaf,Istanbul: UTC+3
779,São José dos Pinhais,Sao Jose dos Pinhais,-25.57,-49.18,BR,Paraná,São_Paulo: UTC-3
780,Santo André,Santo Andre,-23.6528,-46.5278,BR,São Paulo,São_Paulo: UTC-3
781,Bytom,Bytom,50.35,18.91,PL,Śląskie,Paris: UTC+1(+2)
782,Pointe-Noire,Pointe-Noire,-4.77,11.88,CG,Pointe-Noire,Lagos: UTC+1
783,Aţ Ţā’if,At Ta'if,21.2622,40.3823,SA,Makkah al Mukarramah,Istanbul: UTC+3
784,Ismailia,Ismailia,30.5903,32.26,EG,Al Ismā‘īlīyah,Cairo: UTC+2(+3)
785,Concord,Concord,37.9722,-122.002,US,California,Los_Angeles: UTC-8(-7)
786,Shimoga,Shimoga,13.9304,75.56,IN,Karnātaka,Mumbai: UTC+5.5
787,Biên Hòa,Bien Hoa,10.97,106.8301,VN,Đồng Nai,Jakarta: UTC+7
788,Xiping,Xiping,25.6005,103.8166,CN,Yunnan,Shanghai: UTC+8
789,Kryvyy Rih,Kryvyy Rih,47.9283,33.345,UA,Dnipropetrovs’ka Oblast’,Athens: UTC+2(+3)
790,Irbid,Irbid,32.55,35.85,JO,Irbid,Istanbul: UTC+3
791,Tiruppūr,Tiruppur,11.0804,77.33,IN,Tamil Nādu,Mumbai: UTC+5.5
792,Andijon,Andijon,40.79,72.34,UZ,Andijon,Karachi: UTC+5
793,Krasnodar,Krasnodar,45.02,39,RU,Krasnodarskiy Kray,Istanbul: UTC+3
794,Zaragoza,Zaragoza,41.65,-0.89,ES,Aragon,Paris: UTC+1(+2)
795,Genoa,Genoa,44.41,8.93,IT,Liguria,Paris: UTC+1(+2)
796,Lilongwe,Lilongwe,-13.9833,33.7833,MW,Lilongwe,Johannesburg: UTC+2
797,Diyarbakır,Diyarbakir,37.9204,40.23,KRD,Diyarbakır,Istanbul: UTC+3
798,Morelia,Morelia,19.7334,-101.19,MX,Michoacán de Ocampo,Mexico_City: UTC-6
799,Ul’yanovsk,Ul'yanovsk,54.33,48.41,RU,Ul’yanovskaya Oblast’,Dubai: UTC+4
800,Utrecht,Utrecht,52.1003,5.12,NL,Utrecht,Paris: UTC+1(+2)
801,Kikwit,Kikwit,-5.03,18.85,CD,Kwilu,Lagos: UTC+1
802,Al Hufūf,Al Hufuf,25.3487,49.5856,SA,Ash Sharqīyah,Istanbul: UTC+3
803,Yogyakarta,Yogyakarta,-7.78,110.375,ID,Yogyakarta,Jakarta: UTC+7
804,Wrocław,Wroclaw,51.1104,17.03,PL,Dolnośląskie,Paris: UTC+1(+2)
805,Winnipeg,Winnipeg,49.883,-97.166,CA,Manitoba,Chicago: UTC-6(-5)
806,Izhevsk,Izhevsk,56.85,53.23,RU,Udmurtiya,Dubai: UTC+4
807,Cape Coral,Cape Coral,26.6445,-81.9955,US,Florida,New_York: UTC-5(-4)
808,Springfield,Springfield,42.1155,-72.5395,US,Massachusetts,New_York: UTC-5(-4)
809,Zhuozhou,Zhuozhou,39.5401,115.79,CN,Hebei,Shanghai: UTC+8
810,Raurkela,Raurkela,22.2304,84.83,IN,Odisha,Mumbai: UTC+5.5
811,Québec,Quebec,46.84,-71.2456,QUEBEC,Québec,New_York: UTC-5(-4)
812,Poznań,Poznan,52.4058,16.8999,PL,Wielkopolskie,Paris: UTC+1(+2)
813,Colorado Springs,Colorado Springs,38.8674,-104.761,US,Colorado,Denver: UTC-7(-6)
814,Port Said,Port Said,31.26,32.29,EG,Būr Sa‘īd,Cairo: UTC+2(+3)
815,Nānded,Nanded,19.17,77.3,IN,Mahārāshtra,Mumbai: UTC+5.5
816,Bannu,Bannu,32.989,70.5986,PK,Khyber Pakhtunkhwa,Karachi: UTC+5
817,Asmara,Asmara,15.3333,38.9333,ER,Ma’ākel,Istanbul: UTC+3
818,Southend-on-Sea,Southend-on-Sea,51.55,0.72,UK,Southend-on-Sea,London: UTC±0(+1)
819,Dresden,Dresden,51.05,13.75,DE,Saxony,Paris: UTC+1(+2)
820,Wiesbaden,Wiesbaden,50.0804,8.25,DE,Hesse,Paris: UTC+1(+2)
821,Charleston,Charleston,32.8151,-79.963,US,South Carolina,New_York: UTC-5(-4)
822,Changping,Changping,40.2248,116.1944,CN,Beijing,Shanghai: UTC+8
823,Palu,Palu,-0.907,119.833,ID,Sulawesi Tengah,Shanghai: UTC+8
824,Taizhou,Taizhou,32.4904,119.9,CN,Jiangsu,Shanghai: UTC+8
825,Xingtai,Xingtai,37.05,114.5,CN,Hebei,Shanghai: UTC+8
826,Samsun,Samsun,41.28,36.3437,TR,Samsun,Istanbul: UTC+3
827,Luxor,Luxor,25.7,32.65,EG,Al Uqşur,Cairo: UTC+2(+3)
828,Belgaum,Belgaum,15.865,74.505,IN,Karnātaka,Mumbai: UTC+5.5
829,Pontianak,Pontianak,-0.03,109.32,ID,Kalimantan Barat,Jakarta: UTC+7
830,Yaroslavl’,Yaroslavl',57.62,39.87,RU,Yaroslavskaya Oblast’,Istanbul: UTC+3
831,Constantine,Constantine,36.36,6.5999,DZ,Constantine,Lagos: UTC+1
832,Banjarmasin,Banjarmasin,-3.33,114.5801,ID,Kalimantan Selatan,Shanghai: UTC+8
833,Abu Dhabi,Abu Dhabi,24.4667,54.3666,AE,Abū Z̧aby,Dubai: UTC+4
834,Grand Rapids,Grand Rapids,42.9615,-85.6557,US,Michigan,New_York: UTC-5(-4)
835,Kirkuk,Kirkuk,35.4722,44.3923,IQ,Kirkūk,Istanbul: UTC+3
836,Sāngli,Sangli,16.8604,74.575,IN,Mahārāshtra,Mumbai: UTC+5.5
837,Barcelona,Barcelona,10.1304,-64.72,VE,Anzoátegui,Caracas: UTC-4
838,Mission Viejo,Mission Viejo,33.6095,-117.655,US,California,Los_Angeles: UTC-8(-7)
839,Sūhāj,Suhaj,26.5504,31.7,EG,Sūhāj,Cairo: UTC+2(+3)
840,Al Manşūrah,Al Mansurah,31.0504,31.38,EG,Ad Daqahlīyah,Cairo: UTC+2(+3)
841,Canoas,Canoas,-29.92,-51.18,BR,Rio Grande do Sul,São_Paulo: UTC-3
842,Barnaul,Barnaul,53.355,83.745,RU,Altayskiy Kray,Jakarta: UTC+7
843,Zāhedān,Zahedan,29.5,60.83,IR,Sīstān va Balūchestān,Tehran: UTC+3.5
844,Jalālābād,Jalalabad,34.4415,70.4361,AF,Nangarhār,Kabul: UTC+4.5
845,Albany,Albany,42.6664,-73.7987,US,New York,New_York: UTC-5(-4)
846,Chiclayo,Chiclayo,-6.7629,-79.8366,PE,Lambayeque,Lima: UTC-5
847,Hermosillo,Hermosillo,29.0989,-110.954,MX,Sonora,Phoenix: UTC-7
848,Port Louis,Port Louis,-20.1666,57.5,MU,Port Louis,Dubai: UTC+4
849,Chānda,Chanda,19.97,79.3,IN,Mahārāshtra,Mumbai: UTC+5.5
850,Al Ḩillah,Al Hillah,32.4721,44.4217,IQ,Bābil,Istanbul: UTC+3
851,Al Ḩillah,Al Hillah,23.4895,46.7564,SA,Ar Riyāḑ,Istanbul: UTC+3
852,Rasht,Rasht,37.3,49.63,IR,Gīlān,Tehran: UTC+3.5
853,Nagano,Nagano,36.65,138.17,JP,Nagano,Tokyo: UTC+9
854,Vinh,Vinh,18.7,105.68,VN,Nghệ An,Jakarta: UTC+7
855,Abeokuta,Abeokuta,7.1604,3.35,NG,Ogun,Lagos: UTC+1
856,Kayseri,Kayseri,38.735,35.49,TR,Kayseri,Istanbul: UTC+3
857,Samarinda,Samarinda,-0.5,117.15,ID,Kalimantan Timur,Shanghai: UTC+8
858,Ajmer,Ajmer,26.45,74.64,IN,Rājasthān,Mumbai: UTC+5.5
859,Dortmund,Dortmund,51.53,7.45,DE,North Rhine-Westphalia,Paris: UTC+1(+2)
860,Vladivostok,Vladivostok,43.13,131.91,RU,Primorskiy Kray,Brisbane: UTC+10
861,Irkutsk,Irkutsk,52.32,104.245,RU,Irkutskaya Oblast’,Shanghai: UTC+8
862,Knoxville,Knoxville,35.9692,-83.9496,US,Tennessee,New_York: UTC-5(-4)
863,Blantyre,Blantyre,-15.79,34.9899,MW,Blantyre,Johannesburg: UTC+2
864,Baton Rouge,Baton Rouge,30.4419,-91.131,US,Louisiana,Chicago: UTC-6(-5)
865,Anqing,Anqing,30.5,117.05,CN,Anhui,Shanghai: UTC+8
866,Cuttack,Cuttack,20.47,85.8899,IN,Odisha,Mumbai: UTC+5.5
867,Hachiōji,Hachioji,35.6577,139.3261,JP,Tōkyō,Tokyo: UTC+9
868,Khabarovsk,Khabarovsk,48.455,135.12,RU,Khabarovskiy Kray,Brisbane: UTC+10
869,Veracruz,Veracruz,19.1773,-96.16,MX,Veracruz,Mexico_City: UTC-6
870,Kisangani,Kisangani,0.52,25.22,CD,Tshopo,Johannesburg: UTC+2
871,Libreville,Libreville,0.3854,9.458,GA,Estuaire,Lagos: UTC+1
872,Kermān,Kerman,30.3,57.08,IR,Kermān,Tehran: UTC+3.5
873,Orūmīyeh,Orumiyeh,37.53,45,KRD,Āz̄arbāyjān-e Gharbī,Tehran: UTC+3.5
874,Bīkaner,Bikaner,28.0304,73.3299,IN,Rājasthān,Mumbai: UTC+5.5
875,Quetzaltenango,Quetzaltenango,14.83,-91.52,GT,Quetzaltenango,Mexico_City: UTC-6
876,Bakersfield,Bakersfield,35.353,-119.036,US,California,Los_Angeles: UTC-8(-7)
877,Ogden,Ogden,41.228,-111.968,US,Utah,Denver: UTC-7(-6)
878,Shihezi,Shihezi,44.3,86.0299,CN,Xinjiang,Dhaka: UTC+6
879,Kuching,Kuching,1.53,110.33,MY,Sarawak,Shanghai: UTC+8
880,Shuozhou,Shuozhou,39.3004,112.42,CN,Shanxi,Shanghai: UTC+8
881,Niigata,Niigata,37.92,139.04,JP,Niigata,Tokyo: UTC+9
882,Pereira,Pereira,4.8104,-75.68,CO,Risaralda,Lima: UTC-5
883,Macau,Macau,22.203,113.545,MO,Macau,Shanghai: UTC+8
884,New Haven,New Haven,41.3112,-72.9246,US,Connecticut,New_York: UTC-5(-4)
885,Bouaké,Bouake,7.69,-5.03,CI,Vallée du Bandama,Abidjan: UTC±0
886,Columbia,Columbia,34.0376,-80.9037,US,South Carolina,New_York: UTC-5(-4)
887,Akron,Akron,41.0798,-81.5219,US,Ohio,New_York: UTC-5(-4)
888,Binjai,Binjai,3.6204,98.5001,ID,Sumatera Utara,Jakarta: UTC+7
889,Manama,Manama,26.2361,50.5831,BH,Al ‘Āşimah,Istanbul: UTC+3
890,Uberlândia,Uberlandia,-18.9,-48.28,BR,Minas Gerais,São_Paulo: UTC-3
891,Sorocaba,Sorocaba,-23.49,-47.47,BR,São Paulo,São_Paulo: UTC-3
892,Wusong,Wusong,30.9504,117.78,CN,Anhui,Shanghai: UTC+8
893,Weihai,Weihai,37.5,122.1,CN,Shandong,Shanghai: UTC+8
894,Mar del Plata,Mar del Plata,-38,-57.58,AR,Buenos Aires,São_Paulo: UTC-3
895,Santiago de Cuba,Santiago de Cuba,20.025,-75.8213,CU,Santiago de Cuba,New_York: UTC-5(-4)
896,Siping,Siping,43.17,124.33,CN,Jilin,Shanghai: UTC+8
897,Kagoshima,Kagoshima,31.586,130.5611,JP,Kagoshima,Tokyo: UTC+9
898,Surakarta,Surakarta,-7.565,110.825,ID,Jawa Tengah,Jakarta: UTC+7
899,Makhachkala,Makhachkala,42.98,47.5,RU,Dagestan,Istanbul: UTC+3
900,Bhāvnagar,Bhavnagar,21.7784,72.13,IN,Gujarāt,Mumbai: UTC+5.5
901,Uyo,Uyo,5.008,7.85,NG,Akwa Ibom,Lagos: UTC+1
902,Bristol,Bristol,51.45,-2.5833,UK,"Bristol, City of",London: UTC±0(+1)
903,Bahawalpur,Bahawalpur,29.39,71.675,PK,Punjab,Karachi: UTC+5
904,Kenitra,Kenitra,34.2704,-6.58,MA,Rabat-Salé-Kénitra,Casablanca: UTC±0(+1)
905,Ribeirão Prêto,Ribeirao Preto,-21.17,-47.83,BR,São Paulo,São_Paulo: UTC-3
906,Kanazawa,Kanazawa,36.56,136.64,JP,Ishikawa,Tokyo: UTC+9
907,Orenburg,Orenburg,51.78,55.11,RU,Orenburgskaya Oblast’,Karachi: UTC+5
908,Málaga,Malaga,36.7204,-4.42,ES,Andalusia,Paris: UTC+1(+2)
909,Tabūk,Tabuk,28.3838,36.555,SA,Tabūk,Istanbul: UTC+3
910,Puerto La Cruz,Puerto La Cruz,10.17,-64.68,VE,Anzoátegui,Caracas: UTC-4
911,Jiujiang,Jiujiang,29.73,115.98,CN,Jiangxi,Shanghai: UTC+8
912,Hisar,Hisar,29.17,75.725,IN,Haryāna,Mumbai: UTC+5.5
913,Kashgar,Kashgar,39.4763,75.9699,CN,Xinjiang,Dhaka: UTC+6
914,Matola,Matola,-25.9696,32.46,MZ,Maputo,Johannesburg: UTC+2
915,Bilāspur,Bilaspur,22.0904,82.16,IN,Chhattīsgarh,Mumbai: UTC+5.5
916,Sargodha,Sargodha,32.0854,72.675,PK,Punjab,Karachi: UTC+5
917,Leipzig,Leipzig,51.3354,12.41,DE,Saxony,Paris: UTC+1(+2)
918,Vilnius,Vilnius,54.6834,25.3166,LT,Vilniaus Miestas,Athens: UTC+2(+3)
919,Tinnevelly,Tinnevelly,8.7304,77.69,IN,Tamil Nādu,Mumbai: UTC+5.5
920,Cancún,Cancun,21.17,-86.83,MX,Quintana Roo,Lima: UTC-5
921,Yangzhou,Yangzhou,32.4,119.43,CN,Jiangsu,Shanghai: UTC+8
922,Novokuznetsk,Novokuznetsk,53.75,87.115,RU,Kemerovskaya Oblast’,Jakarta: UTC+7
923,Latakia,Latakia,35.54,35.78,SY,Al Lādhiqīyah,Istanbul: UTC+3
924,Heroica Matamoros,Heroica Matamoros,25.88,-97.5,MX,Tamaulipas,Chicago: UTC-6(-5)
925,Göteborg,Goteborg,57.75,12,SE,Västra Götaland,Paris: UTC+1(+2)
926,Ōtsu,Otsu,35.0064,135.8674,JP,Shiga,Tokyo: UTC+9
927,Tomsk,Tomsk,56.495,84.975,RU,Tomskaya Oblast’,Jakarta: UTC+7
928,Linxia Chengguanzhen,Linxia Chengguanzhen,35.6,103.2,CN,Gansu,Shanghai: UTC+8
929,Matsuyama,Matsuyama,33.8455,132.7658,JP,Ehime,Tokyo: UTC+9
930,Rouen,Rouen,49.4304,1.08,FR,Normandie,Paris: UTC+1(+2)
931,Jiangmen,Jiangmen,22.5804,113.08,CN,Guangdong,Shanghai: UTC+8
932,Oaxaca,Oaxaca,17.0827,-96.6699,MX,Oaxaca,Mexico_City: UTC-6
933,Beira,Beira,-19.82,34.87,MZ,Sofala,Johannesburg: UTC+2
934,Guntūr,Guntur,16.33,80.45,IN,Andhra Pradesh,Mumbai: UTC+5.5
935,Tripoli,Tripoli,34.42,35.87,LB,Liban-Nord,Beirut: UTC+2(+3)
936,Hamadān,Hamadan,34.796,48.515,IR,Hamadān,Tehran: UTC+3.5
937,Cangzhou,Cangzhou,38.3204,116.87,CN,Hebei,Shanghai: UTC+8
938,Kota Kinabalu,Kota Kinabalu,5.98,116.11,MY,Sabah,Shanghai: UTC+8
939,Gold Coast,Gold Coast,-28.0815,153.4482,AU,Queensland,Brisbane: UTC+10
940,Ji’an,Ji'an,27.1304,115,CN,Jiangxi,Shanghai: UTC+8
941,Londrina,Londrina,-23.3,-51.18,BR,Paraná,São_Paulo: UTC-3
942,Ryazan’,Ryazan',54.62,39.72,RU,Ryazanskaya Oblast’,Istanbul: UTC+3
943,Shashi,Shashi,30.32,112.23,CN,Hubei,Shanghai: UTC+8
944,Bello,Bello,6.33,-75.57,CO,Antioquia,Lima: UTC-5
945,Tyumen’,Tyumen',57.14,65.53,RU,Tyumenskaya Oblast’,Karachi: UTC+5
946,Lipetsk,Lipetsk,52.62,39.64,RU,Lipetskaya Oblast’,Istanbul: UTC+3
947,Shiliguri,Shiliguri,26.7204,88.455,IN,West Bengal,Mumbai: UTC+5.5
948,Eskişehir,Eskisehir,39.795,30.53,TR,Eskişehir,Istanbul: UTC+3
949,Banda Aceh,Banda Aceh,5.55,95.32,ID,Aceh,Jakarta: UTC+7
950,Ujjain,Ujjain,23.1904,75.79,IN,Madhya Pradesh,Mumbai: UTC+5.5
951,Salta,Salta,-24.7834,-65.4166,AR,Salta,São_Paulo: UTC-3
952,Penza,Penza,53.18,45,RU,Penzenskaya Oblast’,Istanbul: UTC+3
953,Blida,Blida,36.4203,2.83,DZ,Blida,Lagos: UTC+1
954,Mykolayiv,Mykolayiv,46.9677,31.9843,UA,Mykolayivs’ka Oblast’,Athens: UTC+2(+3)
955,Karbalā’,Karbala',32.6149,44.0245,IQ,Karbalā’,Istanbul: UTC+3
956,Suez,Suez,30.005,32.5499,EG,As Suways,Cairo: UTC+2(+3)
957,Gliwice,Gliwice,50.3304,18.67,PL,Śląskie,Paris: UTC+1(+2)
958,Bukittinggi,Bukittinggi,-0.3031,100.3615,ID,Sumatera Barat,Jakarta: UTC+7
959,Liaoyuan,Liaoyuan,42.9,125.13,CN,Jilin,Shanghai: UTC+8
960,Kota Bharu,Kota Bharu,6.12,102.23,MY,Kelantan,Shanghai: UTC+8
961,Jundiaí,Jundiai,-23.2,-46.88,BR,São Paulo,São_Paulo: UTC-3
962,Edinburgh,Edinburgh,55.9483,-3.2191,SCOT,"Edinburgh, City of",London: UTC±0(+1)
963,Tlaxcala,Tlaxcala,19.32,-98.23,MX,Tlaxcala,Mexico_City: UTC-6
964,Provo,Provo,40.2457,-111.646,US,Utah,Denver: UTC-7(-6)
965,Arāk,Arak,34.0804,49.7,IR,Markazī,Tehran: UTC+3.5
966,Davangere,Davangere,14.47,75.92,IN,Karnātaka,Mumbai: UTC+5.5
967,Viña del Mar,Vina del Mar,-33.03,-71.54,CL,Valparaíso,Santiago: UTC-3(-4)
968,Pingtung,Pingtung,22.6817,120.4817,TW,Pingtung,Shanghai: UTC+8
969,Annaba,Annaba,36.92,7.76,DZ,Annaba,Lagos: UTC+1
970,Akola,Akola,20.71,77.01,IN,Mahārāshtra,Mumbai: UTC+5.5
971,Brighton,Brighton,50.8303,-0.17,UK,Brighton and Hove,London: UTC±0(+1)
972,Astrakhan’,Astrakhan',46.3487,48.055,RU,Astrakhanskaya Oblast’,Dubai: UTC+4
973,Bradford,Bradford,53.8,-1.75,UK,Bradford,London: UTC±0(+1)
974,Bari,Bari,41.1142,16.8728,IT,Puglia,Paris: UTC+1(+2)
975,Damanhūr,Damanhur,31.0504,30.47,EG,Al Buḩayrah,Cairo: UTC+2(+3)
976,Al Minyā,Al Minya,28.09,30.75,EG,Al Minyā,Cairo: UTC+2(+3)
977,Taoyuan District,Taoyuan District,24.9889,121.3111,TW,Taoyuan,Shanghai: UTC+8
978,Keelung,Keelung,25.1333,121.7333,TW,Keelung,Shanghai: UTC+8
979,San Lorenzo,San Lorenzo,-25.34,-57.52,PY,Central,Asunción: UTC-3(-4)
980,Pasuruan,Pasuruan,-7.6296,112.9,ID,Jawa Timur,Jakarta: UTC+7
981,Chiayi,Chiayi,23.4755,120.4351,TW,Chiayi,Shanghai: UTC+8
982,Thái Nguyên,Thai Nguyen,21.6,105.83,VN,Thái Nguyên,Jakarta: UTC+7
983,Awka,Awka,6.2104,7.07,NG,Anambra,Lagos: UTC+1
984,Shuangyashan,Shuangyashan,46.6704,131.35,CN,Heilongjiang,Shanghai: UTC+8
985,Mazatán,Mazatan,29.0171,-110.133,MX,Sonora,Phoenix: UTC-7
986,Tsu,Tsu,34.7171,136.5167,JP,Mie,Tokyo: UTC+9
987,Mataram,Mataram,-8.5795,116.135,ID,Nusa Tenggara Barat,Shanghai: UTC+8
988,Macapá,Macapa,0.033,-51.05,BR,Amapá,São_Paulo: UTC-3
989,Worcester,Worcester,42.2705,-71.8079,US,Massachusetts,New_York: UTC-5(-4)
990,Reynosa,Reynosa,26.08,-98.3,MX,Tamaulipas,Chicago: UTC-6(-5)
991,Shahrisabz,Shahrisabz,39.0618,66.8315,UZ,Qashqadaryo,Karachi: UTC+5
992,Mesa,Mesa,33.4017,-111.718,US,Arizona,Phoenix: UTC-7
993,Dūmā,Duma,33.5833,36.4,SY,Rīf Dimashq,Istanbul: UTC+3
994,Skopje,Skopje,42,21.4335,MK,Skopje,Paris: UTC+1(+2)
995,Mwanza,Mwanza,-2.52,32.93,TZ,Mwanza,Istanbul: UTC+3
996,Wuwei,Wuwei,37.928,102.641,CN,Gansu,Shanghai: UTC+8
997,Palm Bay,Palm Bay,27.955,-80.6628,US,Florida,New_York: UTC-5(-4)
998,Port Sudan,Port Sudan,19.6158,37.2164,SD,Red Sea,Johannesburg: UTC+2
999,Santa Fe,Santa Fe,-31.6239,-60.69,AR,Santa Fe,São_Paulo: UTC-3
1000,Tula,Tula,54.2,37.6299,RU,Tul’skaya Oblast’,Istanbul: UTC+3
1001,Banī Suwayf,Bani Suwayf,29.0804,31.09,EG,Banī Suwayf,Cairo: UTC+2(+3)
1002,Yanji,Yanji,42.8823,129.5128,CN,Jilin,Shanghai: UTC+8
1003,Toledo,Toledo,41.6639,-83.5822,US,Ohio,New_York: UTC-5(-4)
1004,Bologna,Bologna,44.5004,11.34,IT,Emilia-Romagna,Paris: UTC+1(+2)
1005,Brookhaven,Brookhaven,40.8321,-72.9518,US,New York,New_York: UTC-5(-4)
1006,Sahāranpur,Saharanpur,29.97,77.55,IN,Uttar Pradesh,Mumbai: UTC+5.5
1007,Murrieta,Murrieta,33.572,-117.191,US,California,Los_Angeles: UTC-8(-7)
1008,Gulbarga,Gulbarga,17.35,76.82,IN,Karnātaka,Mumbai: UTC+5.5
1009,Bhātpāra,Bhatpara,22.8504,88.52,IN,West Bengal,Mumbai: UTC+5.5
1010,Wichita,Wichita,37.6897,-97.3441,US,Kansas,Chicago: UTC-6(-5)
1011,Ile-Ife,Ile-Ife,7.4804,4.56,NG,Osun,Lagos: UTC+1
1012,Feira de Santana,Feira de Santana,-12.25,-38.97,BR,Bahia,São_Paulo: UTC-3
1013,Shah Alam,Shah Alam,3.0667,101.55,MY,Selangor,Shanghai: UTC+8
1014,Mariupol’,Mariupol',47.0962,37.5562,UA,Donets’ka Oblast’,Athens: UTC+2(+3)
1015,Des Moines,Des Moines,41.5725,-93.6105,US,Iowa,Chicago: UTC-6(-5)
1016,Tuxtla,Tuxtla,16.75,-93.15,MX,Chiapas,Mexico_City: UTC-6
1017,Herāt,Herat,34.33,62.17,AF,Herāt,Kabul: UTC+4.5
1018,Homyel’,Homyel',52.43,31,BY,Homyel’skaya Voblasts’,Istanbul: UTC+3
1019,Zhaoqing,Zhaoqing,23.0504,112.45,CN,Guangdong,Shanghai: UTC+8
1020,Americana,Americana,-22.7499,-47.33,BR,São Paulo,São_Paulo: UTC-3
1021,Dhūlia,Dhulia,20.9,74.77,IN,Mahārāshtra,Mumbai: UTC+5.5
1022,Ostrava,Ostrava,49.8304,18.25,CZ,Moravskoslezský Kraj,Paris: UTC+1(+2)
1023,Yazd,Yazd,31.9201,54.37,IR,Yazd,Tehran: UTC+3.5
1024,Sialkot City,Sialkot City,32.52,74.56,PK,Punjab,Karachi: UTC+5
1025,Kemerovo,Kemerovo,55.34,86.09,RU,Kemerovskaya Oblast’,Jakarta: UTC+7
1026,Nazrēt,Nazret,8.55,39.27,ET,Oromīya,Istanbul: UTC+3
1027,Staten Island,Staten Island,40.5834,-74.1496,US,New York,New_York: UTC-5(-4)
1028,Jiaojiangcun,Jiaojiangcun,28.6804,121.45,CN,Zhejiang,Shanghai: UTC+8
1029,Chaoyang,Chaoyang,41.5504,120.42,CN,Liaoning,Shanghai: UTC+8
1030,Juiz de Fora,Juiz de Fora,-21.77,-43.375,BR,Minas Gerais,São_Paulo: UTC-3
1031,Udaipur,Udaipur,24.6,73.73,IN,Rājasthān,Mumbai: UTC+5.5
1032,Long Beach,Long Beach,33.798,-118.168,US,California,Los_Angeles: UTC-8(-7)
1033,Greenville,Greenville,34.8362,-82.3649,US,South Carolina,New_York: UTC-5(-4)
1034,Kocaeli,Kocaeli,40.776,29.9306,TR,Kocaeli,Istanbul: UTC+3
1035,Piraeus,Piraeus,37.95,23.7,GR,Attikí,Athens: UTC+2(+3)
1036,Shymkent,Shymkent,42.32,69.595,KZ,Shymkent,Dhaka: UTC+6
1037,Iligan,Iligan,8.1712,124.2154,PH,Iligan,Shanghai: UTC+8
1038,Qazvīn,Qazvin,36.27,50,IR,Qazvīn,Tehran: UTC+3.5
1039,Bloemfontein,Bloemfontein,-29.12,26.2299,ZA,Free State,Johannesburg: UTC+2
1040,Calabar,Calabar,4.9604,8.33,NG,Cross River,Lagos: UTC+1
1041,Malatya,Malatya,38.3704,38.3,TR,Malatya,Istanbul: UTC+3
1042,Dadukou,Dadukou,26.55,101.73,CN,Sichuan,Shanghai: UTC+8
1043,Bandar ‘Abbās,Bandar `Abbas,27.2041,56.2721,IR,Hormozgān,Tehran: UTC+3.5
1044,Naberezhnyye Chelny,Naberezhnyye Chelny,55.7,52.3199,RU,Tatarstan,Istanbul: UTC+3
1045,Ḩamāh,Hamah,35.1503,36.73,SY,Ḩamāh,Istanbul: UTC+3
1046,Cranbourne,Cranbourne,-38.0996,145.2834,AU,Victoria,Sydney: UTC+11(+10)
1047,Iquitos,Iquitos,-3.75,-73.25,PE,Loreto,Lima: UTC-5
1048,Mazār-e Sharīf,Mazar-e Sharif,36.7,67.1,AF,Balkh,Kabul: UTC+4.5
1049,Leicester,Leicester,52.63,-1.1332,UK,Leicester,London: UTC±0(+1)
1050,Kirov,Kirov,58.5901,49.67,RU,Kirovskaya Oblast’,Istanbul: UTC+3
1051,Jingdezhen,Jingdezhen,29.2704,117.18,CN,Jiangxi,Shanghai: UTC+8
1052,Durango,Durango,24.0311,-104.67,MX,Durango,Mexico_City: UTC-6
1053,Jambi,Jambi,-1.59,103.61,ID,Jambi,Jakarta: UTC+7
1054,Volta Redonda,Volta Redonda,-22.5196,-44.095,BR,Rio de Janeiro,São_Paulo: UTC-3
1055,Hengshui,Hengshui,37.72,115.7,CN,Hebei,Shanghai: UTC+8
1056,Sfax,Sfax,34.75,10.72,TN,Sfax,Lagos: UTC+1
1057,Sunderland,Sunderland,54.92,-1.38,UK,Sunderland,London: UTC±0(+1)
1058,Xalapa,Xalapa,19.53,-96.92,MX,Veracruz,Mexico_City: UTC-6
1059,Luhans’k,Luhans'k,48.5698,39.3344,UA,Luhans’ka Oblast’,Athens: UTC+2(+3)
1060,Manado,Manado,1.48,124.85,ID,Sulawesi Utara,Shanghai: UTC+8
1061,Qaraghandy,Qaraghandy,49.885,73.115,KZ,Qaraghandy,Dhaka: UTC+6
1062,An Nāşirīyah,An Nasiriyah,31.0429,46.2676,IQ,Dhī Qār,Istanbul: UTC+3
1063,Oshawa,Oshawa,43.88,-78.85,CA,Ontario,New_York: UTC-5(-4)
1064,Taihecun,Taihecun,45.8,130.85,CN,Heilongjiang,Shanghai: UTC+8
1065,Belfast,Belfast,54.6,-5.96,UK,Belfast,London: UTC±0(+1)
1066,Şanlıurfa,Sanliurfa,37.17,38.795,KRD,Şanlıurfa,Istanbul: UTC+3
1067,Chengde,Chengde,40.9604,117.93,CN,Hebei,Shanghai: UTC+8
1068,Jiangguanchi,Jiangguanchi,34.0204,113.82,CN,Henan,Shanghai: UTC+8
1069,Chlef,Chlef,36.1704,1.32,DZ,Chlef,Lagos: UTC+1
1070,Ōita,Oita,33.2432,131.5979,JP,Ōita,Tokyo: UTC+9
1071,Baguio City,Baguio City,16.43,120.5699,PH,Baguio,Shanghai: UTC+8
1072,San Juan,San Juan,-31.55,-68.52,AR,San Juan,São_Paulo: UTC-3
1073,Cheboksary,Cheboksary,56.13,47.25,RU,Chuvashiya,Istanbul: UTC+3
1074,Ado-Ekiti,Ado-Ekiti,7.6304,5.22,NG,Ekiti,Lagos: UTC+1
1075,Balikpapan,Balikpapan,-1.25,116.83,ID,Kalimantan Timur,Shanghai: UTC+8
1076,Bellary,Bellary,15.15,76.915,IN,Karnātaka,Mumbai: UTC+5.5
1077,Bamenda,Bamenda,5.96,10.15,CM,North-West,Lagos: UTC+1
1078,Gent,Gent,51.03,3.7,BE,Flanders,Paris: UTC+1(+2)
1079,Tokushima,Tokushima,34.0674,134.5525,JP,Tokushima,Tokyo: UTC+9
1080,Little Rock,Little Rock,34.7255,-92.358,US,Arkansas,Chicago: UTC-6(-5)
1081,Wuzhou,Wuzhou,23.48,111.32,CN,Guangxi,Shanghai: UTC+8
1082,Portsmouth,Portsmouth,50.8003,-1.08,UK,Portsmouth,London: UTC±0(+1)
1083,Harrisburg,Harrisburg,40.2752,-76.8843,US,Pennsylvania,New_York: UTC-5(-4)
1084,Cabimas,Cabimas,10.43,-71.45,VE,Zulia,Caracas: UTC-4
1085,Foz do Iguaçu,Foz do Iguacu,-25.5235,-54.53,BR,Paraná,São_Paulo: UTC-3
1086,Denton,Denton,33.2176,-97.1419,US,Texas,Chicago: UTC-6(-5)
1087,Wakayama,Wakayama,34.2231,135.1677,JP,Wakayama,Tokyo: UTC+9
1088,Strasbourg,Strasbourg,48.58,7.75,FR,Grand Est,Paris: UTC+1(+2)
1089,Madison,Madison,43.0827,-89.3923,US,Wisconsin,Chicago: UTC-6(-5)
1090,Mawlamyine,Mawlamyine,16.5004,97.67,MM,Mon State,Yangon: UTC+6.5
1091,San Cristóbal,San Cristobal,7.77,-72.25,VE,Táchira,Caracas: UTC-4
1092,Nantes,Nantes,47.2104,-1.59,FR,Pays de la Loire,Paris: UTC+1(+2)
1093,Khŭjand,Khujand,40.29,69.6199,TJ,Sughd,Karachi: UTC+5
1094,Guangyuan,Guangyuan,32.43,105.87,CN,Sichuan,Shanghai: UTC+8
1095,Khomeynī Shahr,Khomeyni Shahr,32.7004,51.47,IR,Eşfahān,Tehran: UTC+3.5
1096,Garoua,Garoua,9.3,13.39,CM,Nord,Lagos: UTC+1
1097,Bukavu,Bukavu,-2.51,28.84,CD,Sud-Kivu,Johannesburg: UTC+2
1098,Tuticorin,Tuticorin,8.82,78.13,IN,Tamil Nādu,Mumbai: UTC+5.5
1099,Nagasaki,Nagasaki,32.765,129.885,JP,Nagasaki,Tokyo: UTC+9
1100,Pohang,Pohang,36.0209,129.3715,KR,Gyeongbuk,Tokyo: UTC+9
1101,Kaliningrad,Kaliningrad,54.7,20.4973,RU,Kaliningradskaya Oblast’,Johannesburg: UTC+2
1102,Likasi,Likasi,-10.97,26.78,CD,Haut-Katanga,Johannesburg: UTC+2
1103,Reno,Reno,39.5497,-119.848,US,Nevada,Los_Angeles: UTC-8(-7)
1104,Spanish Town,Spanish Town,17.9833,-76.95,JM,Saint Catherine,Lima: UTC-5
1105,Port St. Lucie,Port St. Lucie,27.2796,-80.3884,US,Florida,New_York: UTC-5(-4)
1106,San Luis,San Luis,-33.3,-66.35,AR,San Luis,São_Paulo: UTC-3
1107,Katsina,Katsina,12.9904,7.6,NG,Katsina,Lagos: UTC+1
1108,Welkom,Welkom,-27.97,26.73,ZA,Free State,Johannesburg: UTC+2
1109,Santa Marta,Santa Marta,11.2472,-74.2017,CO,Magdalena,Lima: UTC-5
1110,Villahermosa,Villahermosa,18,-92.9,MX,Tabasco,Mexico_City: UTC-6
1111,Bryansk,Bryansk,53.26,34.43,RU,Bryanskaya Oblast’,Istanbul: UTC+3
1112,Bournemouth,Bournemouth,50.73,-1.9,UK,Bournemouth,London: UTC±0(+1)
1113,Bengkulu,Bengkulu,-3.8,102.27,ID,Bengkulu,Jakarta: UTC+7
1114,Heidelberg,Heidelberg,49.42,8.7,DE,Baden-Württemberg,Paris: UTC+1(+2)
1115,Oakland,Oakland,37.7903,-122.217,US,California,Los_Angeles: UTC-8(-7)
1116,Kurnool,Kurnool,15.83,78.03,IN,Andhra Pradesh,Mumbai: UTC+5.5
1117,Chaozhou,Chaozhou,23.68,116.63,CN,Guangdong,Shanghai: UTC+8
1118,Batangas,Batangas,13.7817,121.0217,PH,Batangas,Shanghai: UTC+8
1119,Bratislava,Bratislava,48.15,17.117,SK,Bratislavský,Paris: UTC+1(+2)
1120,Gaya,Gaya,24.8,85,IN,Bihār,Mumbai: UTC+5.5
1121,Ibagué,Ibague,4.4389,-75.2322,CO,Tolima,Lima: UTC-5
1122,Ivanovo,Ivanovo,57.01,41.01,RU,Ivanovskaya Oblast’,Istanbul: UTC+3
1123,Erzurum,Erzurum,39.9204,41.29,TR,Erzurum,Istanbul: UTC+3
1124,Akure,Akure,7.2504,5.2,NG,Ondo,Lagos: UTC+1
1125,Asyūţ,Asyut,27.19,31.1799,EG,Asyūţ,Cairo: UTC+2(+3)
1126,Kolwezi,Kolwezi,-10.7167,25.4724,CD,Lualaba,Johannesburg: UTC+2
1127,Sukkur,Sukkur,27.7136,68.8486,PK,Sindh,Karachi: UTC+5
1128,Luohe,Luohe,33.57,114.03,CN,Henan,Shanghai: UTC+8
1129,Campina Grande,Campina Grande,-7.23,-35.88,BR,Paraíba,São_Paulo: UTC-3
1130,Kitchener,Kitchener,43.45,-80.5,CA,Ontario,New_York: UTC-5(-4)
1131,Winston-Salem,Winston-Salem,36.1029,-80.261,US,North Carolina,New_York: UTC-5(-4)
1132,Middlesbrough,Middlesbrough,54.5804,-1.23,UK,Redcar and Cleveland,London: UTC±0(+1)
1133,Meizhou,Meizhou,24.3005,116.12,CN,Guangdong,Shanghai: UTC+8
1134,Ardabīl,Ardabil,38.25,48.3,IR,Ardabīl,Tehran: UTC+3.5
1135,Magnitogorsk,Magnitogorsk,53.4227,58.98,RU,Chelyabinskaya Oblast’,Karachi: UTC+5
1136,Gifu,Gifu,35.4231,136.7628,JP,Gifu,Tokyo: UTC+9
1137,Huancayo,Huancayo,-12.08,-75.2,PE,Junín,Lima: UTC-5
1138,Nha Trang,Nha Trang,12.25,109.17,VN,Khánh Hòa,Jakarta: UTC+7
1139,Maturín,Maturin,9.75,-63.17,VE,Monagas,Caracas: UTC-4
1140,Zhangjiakou Shi Xuanhua Qu,Zhangjiakou Shi Xuanhua Qu,40.5944,115.0243,CN,Hebei,Shanghai: UTC+8
1141,Kursk,Kursk,51.74,36.19,RU,Kurskaya Oblast’,Istanbul: UTC+3
1142,Oujda-Angad,Oujda-Angad,34.69,-1.91,MA,Oriental,Casablanca: UTC±0(+1)
1143,Metz,Metz,49.1203,6.18,FR,Grand Est,Paris: UTC+1(+2)
1144,Al ‘Ayn,Al `Ayn,24.2305,55.74,AE,Abū Z̧aby,Dubai: UTC+4
1145,Jeju,Jeju,33.5101,126.5219,KR,Jeju,Tokyo: UTC+9
1146,Osogbo,Osogbo,7.7704,4.56,NG,Osun,Lagos: UTC+1
1147,Indio,Indio,33.7346,-116.235,US,California,Los_Angeles: UTC-8(-7)
1148,Ipatinga,Ipatinga,-19.4796,-42.52,BR,Minas Gerais,São_Paulo: UTC-3
1149,Szczecin,Szczecin,53.4204,14.53,PL,Zachodniopomorskie,Paris: UTC+1(+2)
1150,Durham,Durham,35.9795,-78.9032,US,North Carolina,New_York: UTC-5(-4)
1151,Syracuse,Syracuse,43.0409,-76.1438,US,New York,New_York: UTC-5(-4)
1152,Chattanooga,Chattanooga,35.0657,-85.2487,US,Tennessee,New_York: UTC-5(-4)
1153,Murcia,Murcia,37.98,-1.13,ES,Murcia,Paris: UTC+1(+2)
1154,Ţanţā,Tanta,30.7904,31,EG,Al Gharbīyah,Cairo: UTC+2(+3)
1155,Kitwe,Kitwe,-12.81,28.22,ZM,Copperbelt,Johannesburg: UTC+2
1156,Lancaster,Lancaster,40.042,-76.3012,US,Pennsylvania,New_York: UTC-5(-4)
1157,Zanzibar,Zanzibar,-6.16,39.2,TZ,Zanzibar Urban/West,Istanbul: UTC+3
1158,Taubaté,Taubate,-23.0195,-45.56,BR,São Paulo,São_Paulo: UTC-3
1159,Ghulja,Ghulja,43.9,81.35,CN,Xinjiang,Dhaka: UTC+6
1160,Bissau,Bissau,11.865,-15.5984,GW,Bissau,Abidjan: UTC±0
1161,Pasay City,Pasay City,14.5504,121,PH,Pasay,Shanghai: UTC+8
1162,Spokane,Spokane,47.6671,-117.433,US,Washington,Los_Angeles: UTC-8(-7)
1163,Mbale,Mbale,1.0904,34.17,UG,Mbale,Istanbul: UTC+3
1164,Palm Coast,Palm Coast,29.5392,-81.246,US,Florida,New_York: UTC-5(-4)
1165,Kassala,Kassala,15.46,36.39,SD,Kassala,Johannesburg: UTC+2
1166,Sunch’ŏn,Sunch'on,39.4236,125.939,KP,P’yŏngnam,Tokyo: UTC+9
1167,Tver’,Tver',56.86,35.89,RU,Tverskaya Oblast’,Istanbul: UTC+3
1168,Sīkar,Sikar,27.6104,75.14,IN,Rājasthān,Mumbai: UTC+5.5
1169,Jiangjiafan,Jiangjiafan,31.0304,112.1,CN,Hubei,Shanghai: UTC+8
1170,Surgut,Surgut,61.2599,73.425,RU,Khanty-Mansiyskiy Avtonomnyy Okrug-Yugra,Karachi: UTC+5
1171,Tumkūr,Tumkur,13.33,77.1,IN,Karnātaka,Mumbai: UTC+5.5
1172,Gómez Palacio,Gomez Palacio,25.5701,-103.5,MX,Durango,Mexico_City: UTC-6
1173,Buraydah,Buraydah,26.3664,43.9628,SA,Al Qaşīm,Istanbul: UTC+3
1174,Khmel’nyts’kyy,Khmel'nyts'kyy,49.4249,27.0015,UA,Khmel’nyts’ka Oblast’,Athens: UTC+2(+3)
1175,Eindhoven,Eindhoven,51.43,5.5,NL,Noord-Brabant,Paris: UTC+1(+2)
1176,Chiang Mai,Chiang Mai,18.8,98.98,TH,Chiang Mai,Jakarta: UTC+7
1177,Piura,Piura,-5.21,-80.63,PE,Piura,Lima: UTC-5
1178,Horlivka,Horlivka,48.2996,38.0547,UA,Donets’ka Oblast’,Athens: UTC+2(+3)
1179,Arlington,Arlington,32.6998,-97.1251,US,Texas,Chicago: UTC-6(-5)
1180,Ndola,Ndola,-12.9999,28.65,ZM,Copperbelt,Johannesburg: UTC+2
1181,Yuxi,Yuxi,24.38,102.57,CN,Yunnan,Shanghai: UTC+8
1182,Bonita Springs,Bonita Springs,26.3559,-81.7861,US,Florida,New_York: UTC-5(-4)
1183,Poughkeepsie,Poughkeepsie,41.6949,-73.921,US,New York,New_York: UTC-5(-4)
1184,Kisumu,Kisumu,-0.09,34.75,KE,Kisumu,Istanbul: UTC+3
1185,Stockton,Stockton,37.9766,-121.311,US,California,Los_Angeles: UTC-8(-7)
1186,Quilon,Quilon,8.9004,76.57,IN,Kerala,Mumbai: UTC+5.5
1187,Tallinn,Tallinn,59.4339,24.728,EE,Harjumaa,Athens: UTC+2(+3)
1188,Wellington,Wellington,-41.3,174.7833,NZ,Wellington,Auckland: UTC+13(+12)
1189,El Obeid,El Obeid,13.1833,30.2167,SD,North Kordofan,Johannesburg: UTC+2
1190,Nyala,Nyala,12.06,24.89,SD,South Darfur,Johannesburg: UTC+2
1191,Sandakan,Sandakan,5.843,118.108,MY,Sabah,Shanghai: UTC+8
1192,Ahmadnagar,Ahmadnagar,19.1104,74.75,IN,Mahārāshtra,Mumbai: UTC+5.5
1193,Osh,Osh,40.5404,72.79,KG,Osh,Dhaka: UTC+6
1194,Stoke-on-Trent,Stoke-on-Trent,53.0004,-2.18,UK,Stoke-on-Trent,London: UTC±0(+1)
1195,Bhīlwāra,Bhilwara,25.3504,74.635,IN,Rājasthān,Mumbai: UTC+5.5
1196,Oxnard,Oxnard,34.1962,-119.182,US,California,Los_Angeles: UTC-8(-7)
1197,Comilla,Comilla,23.4704,91.17,BD,Chittagong,Dhaka: UTC+6
1198,Augusta,Augusta,33.3645,-82.0708,US,Georgia,New_York: UTC-5(-4)
1199,Scranton,Scranton,41.4044,-75.6649,US,Pennsylvania,New_York: UTC-5(-4)
1200,Samut Prakan,Samut Prakan,13.6069,100.6115,TH,Samut Prakan,Jakarta: UTC+7
1201,Grenoble,Grenoble,45.1804,5.72,FR,Auvergne-Rhône-Alpes,Paris: UTC+1(+2)
1202,Nampula,Nampula,-15.136,39.293,MZ,Nampula,Johannesburg: UTC+2
1203,Nizāmābād,Nizamabad,18.6704,78.1,IN,Telangana,Mumbai: UTC+5.5
1204,Granada,Granada,37.165,-3.585,ES,Andalusia,Paris: UTC+1(+2)
1205,Brno,Brno,49.2004,16.61,CZ,Jihomoravský Kraj,Paris: UTC+1(+2)
1206,Coventry,Coventry,52.4204,-1.5,UK,Coventry,London: UTC±0(+1)
1207,Alajuela,Alajuela,10.02,-84.23,CR,Alajuela,Mexico_City: UTC-6
1208,Iloilo,Iloilo,10.705,122.545,PH,Iloilo,Shanghai: UTC+8
1209,Campos,Campos,-21.75,-41.32,BR,Rio de Janeiro,São_Paulo: UTC-3
1210,Resistencia,Resistencia,-27.46,-58.99,AR,Chaco,São_Paulo: UTC-3
1211,Baicheng,Baicheng,45.62,122.82,CN,Jilin,Shanghai: UTC+8
1212,Qarshi,Qarshi,38.8704,65.8,UZ,Qashqadaryo,Karachi: UTC+5
1213,Mişrātah,Misratah,32.38,15.1,LY,Mişrātah,Johannesburg: UTC+2
1214,Ḩā’il,Ha'il,27.5236,41.7001,SA,Ḩā’il,Istanbul: UTC+3
1215,Boise,Boise,43.6007,-116.231,US,Idaho,Denver: UTC-7(-6)
1216,Bejaïa,Bejaia,36.7604,5.07,DZ,Bejaïa,Lagos: UTC+1
1217,Southampton,Southampton,50.9,-1.4,UK,Southampton,London: UTC±0(+1)
1218,Celaya,Celaya,20.53,-100.8,MX,Guanajuato,Mexico_City: UTC-6
1219,Pasto,Pasto,1.2136,-77.2811,CO,Nariño,Lima: UTC-5
1220,Modesto,Modesto,37.6374,-121.003,US,California,Los_Angeles: UTC-8(-7)
1221,Caxias do Sul,Caxias do Sul,-29.18,-51.17,BR,Rio Grande do Sul,São_Paulo: UTC-3
1222,Nizhniy Tagil,Nizhniy Tagil,57.92,59.975,RU,Sverdlovskaya Oblast’,Karachi: UTC+5
1223,Xichang,Xichang,27.88,102.3,CN,Sichuan,Shanghai: UTC+8
1224,Dezhou,Dezhou,37.4504,116.3,CN,Shandong,Shanghai: UTC+8
1225,Vigo,Vigo,42.22,-8.73,GAL,Galicia,Paris: UTC+1(+2)
1226,Las Palmas de Gran Canaria,Las Palmas de Gran Canaria,28.1,-15.43,ES,Canary Islands,London: UTC±0(+1)
1227,Parbhani,Parbhani,19.2704,76.76,IN,Mahārāshtra,Mumbai: UTC+5.5
1228,Karlsruhe,Karlsruhe,49,8.4,DE,Baden-Württemberg,Paris: UTC+1(+2)
1229,Zhoukou,Zhoukou,33.6304,114.63,CN,Henan,Shanghai: UTC+8
1230,Makiyivka,Makiyivka,48.0297,37.9746,UA,Donets’ka Oblast’,Athens: UTC+2(+3)
1231,Putian,Putian,25.4303,119.02,CN,Fujian,Shanghai: UTC+8
1232,Kahramanmaraş,Kahramanmaras,37.61,36.945,TR,Kahramanmaraş,Istanbul: UTC+3
1233,Manizales,Manizales,5.06,-75.52,CO,Caldas,Lima: UTC-5
1234,Palma,Palma,39.5743,2.6542,ES,Balearic Islands,Paris: UTC+1(+2)
1235,Manukau City,Manukau City,-37,174.885,NZ,Auckland,Auckland: UTC+13(+12)
1236,Shillong,Shillong,25.5705,91.88,IN,Meghālaya,Mumbai: UTC+5.5
1237,Khorramābād,Khorramabad,33.4804,48.35,IR,Lorestān,Tehran: UTC+3.5
1238,Villavicencio,Villavicencio,4.1533,-73.635,CO,Meta,Lima: UTC-5
1239,São José do Rio Prêto,Sao Jose do Rio Preto,-20.7996,-49.39,BR,São Paulo,São_Paulo: UTC-3
1240,Kaunas,Kaunas,54.9504,23.88,LT,Kauno Miestas,Athens: UTC+2(+3)
1241,Lātūr,Latur,18.4004,76.57,IN,Mahārāshtra,Mumbai: UTC+5.5
1242,Kissimmee,Kissimmee,28.3042,-81.4164,US,Florida,New_York: UTC-5(-4)
1243,Youngstown,Youngstown,41.0993,-80.6463,US,Ohio,New_York: UTC-5(-4)
1244,Shache,Shache,38.4261,77.25,CN,Xinjiang,Dhaka: UTC+6
1245,Seremban,Seremban,2.7105,101.94,MY,Negeri Sembilan,Shanghai: UTC+8
1246,Denizli,Denizli,37.7704,29.08,TR,Denizli,Istanbul: UTC+3
1247,Van,Van,38.4954,43.4,KRD,Van,Istanbul: UTC+3
1248,A Coruña,A Coruna,43.33,-8.42,GAL,Galicia,Paris: UTC+1(+2)
1249,Madan,Madan,30.3307,48.2797,IR,Khūzestān,Tehran: UTC+3.5
1250,Quzhou,Quzhou,28.9704,118.87,CN,Zhejiang,Shanghai: UTC+8
1251,Rājapālaiyam,Rajapalaiyam,9.4204,77.58,IN,Tamil Nādu,Mumbai: UTC+5.5
1252,Reading,Reading,51.47,-0.98,UK,Reading,London: UTC±0(+1)
1253,Najrān,Najran,17.5065,44.1316,SA,Najrān,Istanbul: UTC+3
1254,Mahilyow,Mahilyow,53.8985,30.3247,BY,Mahilyowskaya Voblasts’,Istanbul: UTC+3
1255,Al Qaţīf,Al Qatif,26.5196,50.0115,SA,Ash Sharqīyah,Istanbul: UTC+3
1256,Valletta,Valletta,35.8997,14.5147,MT,Valletta,Paris: UTC+1(+2)
1257,Mazatlán,Mazatlan,23.2211,-106.42,MX,Sinaloa,Phoenix: UTC-7
1258,Longyan,Longyan,25.1804,117.03,CN,Fujian,Shanghai: UTC+8
1259,Aurora,Aurora,39.7084,-104.727,US,Colorado,Denver: UTC-7(-6)
1260,Bydgoszcz,Bydgoszcz,53.1204,18.01,PL,Kujawsko-Pomorskie,Paris: UTC+1(+2)
1261,Kuantan,Kuantan,3.83,103.32,MY,Pahang,Shanghai: UTC+8
1262,Gorontalo,Gorontalo,0.55,123.07,ID,Gorontalo,Shanghai: UTC+8
1263,Nakuru,Nakuru,-0.28,36.07,KE,Nakuru,Istanbul: UTC+3
1264,Vladikavkaz,Vladikavkaz,43.0504,44.67,RU,North Ossetia,Istanbul: UTC+3
1265,Larkana,Larkana,27.5618,68.2068,PK,Sindh,Karachi: UTC+5
1266,Christchurch,Christchurch,-43.535,172.63,NZ,Canterbury,Auckland: UTC+13(+12)
1267,Stavropol’,Stavropol',45.05,41.98,RU,Stavropol’skiy Kray,Istanbul: UTC+3
1268,Sanya,Sanya,18.2591,109.504,CN,Hainan,Shanghai: UTC+8
1269,Bhāgalpur,Bhagalpur,25.23,86.98,IN,Bihār,Mumbai: UTC+5.5
1270,Maseru,Maseru,-29.3167,27.4833,LS,Maseru,Johannesburg: UTC+2
1271,Shekhupura,Shekhupura,31.72,73.99,PK,Punjab,Karachi: UTC+5
1272,Cusco,Cusco,-13.525,-71.9722,PE,Cusco,Lima: UTC-5
1273,Tamale,Tamale,9.4004,-0.84,GH,Northern,Abidjan: UTC±0
1274,Ulan-Ude,Ulan-Ude,51.825,107.625,RU,Buryatiya,Shanghai: UTC+8
1275,Bobo-Dioulasso,Bobo-Dioulasso,11.18,-4.29,BF,Hauts-Bassins,Abidjan: UTC±0
1276,Lublin,Lublin,51.2504,22.5727,PL,Lubelskie,Paris: UTC+1(+2)
1277,Halifax,Halifax,44.65,-63.6,CA,Nova Scotia,Halifax: UTC-4(-3)
1278,Augsburg,Augsburg,48.35,10.9,DE,Bavaria,Paris: UTC+1(+2)
1279,Sungai Petani,Sungai Petani,5.6497,100.4793,MY,Kedah,Shanghai: UTC+8
1280,Ad Dīwānīyah,Ad Diwaniyah,31.9889,44.924,IQ,Al Qādisīyah,Istanbul: UTC+3
1281,Taraz,Taraz,42.9,71.365,KZ,Zhambyl,Dhaka: UTC+6
1282,Toulon,Toulon,43.1342,5.9188,FR,Provence-Alpes-Côte d’Azur,Paris: UTC+1(+2)
1283,Zanjān,Zanjan,36.67,48.5,IR,Zanjān,Tehran: UTC+3.5
1284,Donostia,Donostia,43.3204,-1.98,EUS,Basque Country,Paris: UTC+1(+2)
1285,Iwaki,Iwaki,37.0553,140.89,JP,Fukushima,Tokyo: UTC+9
1286,Encarnación,Encarnacion,-27.3472,-55.8739,PY,Itapúa,Asunción: UTC-3(-4)
1287,Posadas,Posadas,-27.3578,-55.8851,AR,Misiones,São_Paulo: UTC-3
1288,Fuyu,Fuyu,45.1804,124.82,CN,Jilin,Shanghai: UTC+8
1289,Cà Mau,Ca Mau,9.1774,105.15,VN,Cà Mau,Jakarta: UTC+7
1290,Asahikawa,Asahikawa,43.755,142.38,JP,Hokkaidō,Tokyo: UTC+9
1291,Mirpur Khas,Mirpur Khas,25.5318,69.0118,PK,Sindh,Karachi: UTC+5
1292,Arkhangel’sk,Arkhangel'sk,64.575,40.545,RU,Arkhangel’skaya Oblast’,Istanbul: UTC+3
1293,Wafangdian,Wafangdian,39.6259,121.996,CN,Liaoning,Shanghai: UTC+8
1294,Ambon,Ambon,-3.7167,128.2,ID,Maluku,Tokyo: UTC+9
1295,Orizaba,Orizaba,18.85,-97.13,MX,Veracruz,Mexico_City: UTC-6
1296,Hongzhai,Hongzhai,35.0476,104.6394,CN,Gansu,Shanghai: UTC+8
1297,Santiago del Estero,Santiago del Estero,-27.7833,-64.2667,AR,Santiago del Estero,São_Paulo: UTC-3
1298,Mito,Mito,36.3704,140.48,JP,Ibaraki,Tokyo: UTC+9
1299,Safi,Safi,32.32,-9.24,MA,Marrakech-Safi,Casablanca: UTC±0(+1)
1300,Eldoret,Eldoret,0.52,35.27,KE,Uasin Gishu,Istanbul: UTC+3
1301,Rahimyar Khan,Rahimyar Khan,28.4202,70.2952,PK,Punjab,Karachi: UTC+5
1302,Neiva,Neiva,2.931,-75.3302,CO,Huila,Lima: UTC-5
1303,Anaheim,Anaheim,33.839,-117.857,US,California,Los_Angeles: UTC-8(-7)
1304,Vinnytsya,Vinnytsya,49.2254,28.4816,UA,Vinnyts’ka Oblast’,Athens: UTC+2(+3)
1305,Hualien,Hualien,23.9837,121.6,TW,Hualien,Shanghai: UTC+8
1306,Kuala Terengganu,Kuala Terengganu,5.3304,103.12,MY,Terengganu,Shanghai: UTC+8
1307,Long Xuyên,Long Xuyen,10.3804,105.42,VN,An Giang,Jakarta: UTC+7
1308,Việt Trì,Viet Tri,21.3304,105.43,VN,Phú Thọ,Jakarta: UTC+7
1309,Qo‘qon,Qo`qon,40.5404,70.94,UZ,Farg‘ona,Karachi: UTC+5
1310,Yingmen,Yingmen,39.83,97.73,CN,Gansu,Shanghai: UTC+8
1311,Haarlem,Haarlem,52.3804,4.63,NL,Noord-Holland,Paris: UTC+1(+2)
1312,Buôn Ma Thuột,Buon Ma Thuot,12.667,108.05,VN,Đắk Lắk,Jakarta: UTC+7
1313,Chimbote,Chimbote,-9.07,-78.57,PE,Ancash,Lima: UTC-5
1314,Muzaffarnagar,Muzaffarnagar,29.485,77.695,IN,Uttar Pradesh,Mumbai: UTC+5.5
1315,Nuevo Laredo,Nuevo Laredo,27.5,-99.55,MX,Tamaulipas,Chicago: UTC-6(-5)
1316,Lancaster,Lancaster,34.6934,-118.175,US,California,Los_Angeles: UTC-8(-7)
1317,Sanandaj,Sanandaj,35.3,47.02,KRD,Kordestān,Tehran: UTC+3.5
1318,Linz,Linz,48.3192,14.2888,AT,Oberösterreich,Paris: UTC+1(+2)
1319,Camagüey,Camaguey,21.3808,-77.9169,CU,Camagüey,New_York: UTC-5(-4)
1320,Verona,Verona,45.4404,10.99,IT,Veneto,Paris: UTC+1(+2)
1321,Victorville,Victorville,34.5277,-117.354,US,California,Los_Angeles: UTC-8(-7)
1322,LondonON,London,42.97,-81.25,CA,Ontario,New_York: UTC-5(-4)
1323,Nur-Sultan,Nur-Sultan,51.1811,71.4278,KZ,Astana,Dhaka: UTC+6
1324,Mérida,Merida,8.4,-71.13,VE,Mérida,Caracas: UTC-4
1325,Charleroi,Charleroi,50.4204,4.45,BE,Wallonia,Paris: UTC+1(+2)
1326,Belgorod,Belgorod,50.63,36.5999,RU,Belgorodskaya Oblast’,Istanbul: UTC+3
1327,Kūstī,Kusti,13.17,32.66,SD,White Nile,Johannesburg: UTC+2
1328,Al ‘Amārah,Al `Amarah,31.8416,47.1512,IQ,Maysān,Istanbul: UTC+3
1329,Maebashi,Maebashi,36.3927,139.0727,JP,Gunma,Tokyo: UTC+9
1330,Pensacola,Pensacola,30.4427,-87.1886,US,Florida,Chicago: UTC-6(-5)
1331,Kurgan,Kurgan,55.46,65.345,RU,Kurganskaya Oblast’,Karachi: UTC+5
1332,Kohat,Kohat,33.6027,71.4327,PK,Khyber Pakhtunkhwa,Karachi: UTC+5
1333,Vitsyebsk,Vitsyebsk,55.1887,30.1853,BY,Vitsyebskaya Voblasts’,Istanbul: UTC+3
1334,Piracicaba,Piracicaba,-22.71,-47.64,BR,São Paulo,São_Paulo: UTC-3
1335,Yeosu,Yeosu,34.7368,127.7458,KR,Jeonnam,Tokyo: UTC+9
1336,Fayetteville,Fayetteville,36.0713,-94.166,US,Arkansas,Chicago: UTC-6(-5)
1337,San Juan,San Juan,18.4037,-66.0636,PR,Puerto Rico,Caracas: UTC-4
1338,Corpus Christi,Corpus Christi,27.7261,-97.3755,US,Texas,Chicago: UTC-6(-5)
1339,Jhang City,Jhang City,31.2804,72.325,PK,Punjab,Karachi: UTC+5
1340,Pematangsiantar,Pematangsiantar,2.9614,99.0615,ID,Sumatera Utara,Jakarta: UTC+7
1341,Arusha,Arusha,-3.36,36.67,TZ,Arusha,Istanbul: UTC+3
1342,Corrientes,Corrientes,-27.49,-58.81,AR,Corrientes,São_Paulo: UTC-3
1343,Tamuramachi-moriyama,Tamuramachi-moriyama,37.41,140.38,JP,Fukushima,Tokyo: UTC+9
1344,Plovdiv,Plovdiv,42.154,24.754,BG,Plovdiv,Athens: UTC+2(+3)
1345,Chitungwiza,Chitungwiza,-18,31.1,ZW,Harare,Johannesburg: UTC+2
1346,Aksu,Aksu,41.15,80.25,CN,Xinjiang,Dhaka: UTC+6
1347,Yucheng,Yucheng,29.9804,103.08,CN,Sichuan,Shanghai: UTC+8
1348,Tieling,Tieling,42.3004,123.82,CN,Liaoning,Shanghai: UTC+8
1349,Irapuato,Irapuato,20.67,-101.5,MX,Guanajuato,Mexico_City: UTC-6
1350,Kaluga,Kaluga,54.5204,36.27,RU,Kaluzhskaya Oblast’,Istanbul: UTC+3
1351,East London,East London,-32.97,27.87,ZA,Eastern Cape,Johannesburg: UTC+2
1352,Jackson,Jackson,32.3163,-90.2124,US,Mississippi,Chicago: UTC-6(-5)
1353,Kaesŏng,Kaesong,37.964,126.5644,KP,Hwangnam,Tokyo: UTC+9
1354,Ciudad Bolívar,Ciudad Bolivar,8.1,-63.6,VE,Bolívar,Caracas: UTC-4
1355,Kawagoe,Kawagoe,35.9177,139.4911,JP,Saitama,Tokyo: UTC+9
1356,Jitpur,Jitpur,27.6666,85.3333,NP,Jitpur,Kathmandu: UTC+5.75
1357,Phan Thiết,Phan Thiet,10.9337,108.1001,VN,Bình Thuận,Jakarta: UTC+7
1358,Alor Setar,Alor Setar,6.1133,100.3729,MY,Kedah,Shanghai: UTC+8
1359,Santa Cruz de Tenerife,Santa Cruz de Tenerife,28.47,-16.25,ES,Canary Islands,London: UTC±0(+1)
1360,Gijón,Gijon,43.53,-5.67,ES,Asturias,Paris: UTC+1(+2)
1361,Greensboro,Greensboro,36.0956,-79.8268,US,North Carolina,New_York: UTC-5(-4)
1362,Kōchi,Kochi,33.5624,133.5375,JP,Kōchi,Tokyo: UTC+9
1363,Flint,Flint,43.0235,-83.6922,US,Michigan,New_York: UTC-5(-4)
1364,Islip,Islip,40.7384,-73.1887,US,New York,New_York: UTC-5(-4)
1365,Bauru,Bauru,-22.33,-49.08,BR,São Paulo,São_Paulo: UTC-3
1366,Nakhon Ratchasima,Nakhon Ratchasima,15,102.1,TH,Nakhon Ratchasima,Jakarta: UTC+7
1367,Orël,Orel,52.97,36.07,RU,Orlovskaya Oblast’,Istanbul: UTC+3
1368,Takamatsu,Takamatsu,34.3447,134.0448,JP,Kagawa,Tokyo: UTC+9
1369,Santa Ana,Santa Ana,33.7366,-117.882,US,California,Los_Angeles: UTC-8(-7)
1370,Muzaffarpur,Muzaffarpur,26.1204,85.3799,IN,Bihār,Mumbai: UTC+5.5
1371,Beni,Beni,0.4904,29.45,CD,Nord-Kivu,Johannesburg: UTC+2
1372,Toyama,Toyama,36.7,137.23,JP,Toyama,Tokyo: UTC+9
1373,Hangu,Hangu,39.232,117.777,CN,Tianjin,Shanghai: UTC+8
1374,Wad Medani,Wad Medani,14.4,33.52,SD,Al Gazira,Johannesburg: UTC+2
1375,Montes Claros,Montes Claros,-16.72,-43.86,BR,Minas Gerais,São_Paulo: UTC-3
1376,Bielefeld,Bielefeld,52.03,8.53,DE,North Rhine-Westphalia,Paris: UTC+1(+2)
1377,Bujumbura,Bujumbura,-3.3761,29.36,BI,Bujumbura Mairie,Johannesburg: UTC+2
1378,Heyuan,Heyuan,23.7304,114.68,CN,Guangdong,Shanghai: UTC+8
1379,Mathura,Mathura,27.5,77.67,IN,Uttar Pradesh,Mumbai: UTC+5.5
1380,Mymensingh,Mymensingh,24.7504,90.38,BD,Mymensingh,Dhaka: UTC+6
1381,Baishan,Baishan,41.9,126.43,CN,Jilin,Shanghai: UTC+8
1382,Patiāla,Patiala,30.3204,76.385,IN,Punjab,Mumbai: UTC+5.5
1383,Wŏnsan,Wonsan,39.1605,127.4308,KP,Kangwŏn,Tokyo: UTC+9
1384,Pavlodar,Pavlodar,52.3,76.95,KZ,Pavlodar,Dhaka: UTC+6
1385,Fort Wayne,Fort Wayne,41.0885,-85.1436,US,Indiana,New_York: UTC-5(-4)
1386,Maringá,Maringa,-23.4095,-51.93,BR,Paraná,São_Paulo: UTC-3
1387,Saugor,Saugor,23.8504,78.75,IN,Madhya Pradesh,Mumbai: UTC+5.5
1388,Canberra,Canberra,-35.283,149.129,AU,Australian Capital Territory,Sydney: UTC+11(+10)
1389,Sochi,Sochi,43.59,39.73,RU,Krasnodarskiy Kray,Istanbul: UTC+3
1390,Montpellier,Montpellier,43.6104,3.87,FR,Occitanie,Paris: UTC+1(+2)
1391,Itajaí,Itajai,-26.8996,-48.68,BR,Santa Catarina,São_Paulo: UTC-3
1392,Sousse,Sousse,35.83,10.625,TN,Sousse,Lagos: UTC+1
1393,Ann Arbor,Ann Arbor,42.2755,-83.7312,US,Michigan,New_York: UTC-5(-4)
1394,Iaşi,Iasi,47.1683,27.5749,RO,Iaşi,Athens: UTC+2(+3)
1395,Brahmapur,Brahmapur,19.32,84.8,IN,Odisha,Mumbai: UTC+5.5
1396,Bīrjand,Birjand,32.88,59.2199,IR,Khorāsān-e Jonūbī,Tehran: UTC+3.5
1397,Fayetteville,Fayetteville,35.0846,-78.9776,US,North Carolina,New_York: UTC-5(-4)
1398,Yoshkar-Ola,Yoshkar-Ola,56.6354,47.8749,RU,Mariy-El,Istanbul: UTC+3
1399,Miyazaki,Miyazaki,31.9182,131.4184,JP,Miyazaki,Tokyo: UTC+9
1400,Volzhskiy,Volzhskiy,48.7948,44.7744,RU,Volgogradskaya Oblast’,Istanbul: UTC+3
1401,Chenzhou,Chenzhou,25.8004,113.0301,CN,Hunan,Shanghai: UTC+8
1402,Valladolid,Valladolid,41.65,-4.75,ES,Castille-Leon,Paris: UTC+1(+2)
1403,Santa Rosa,Santa Rosa,38.4458,-122.707,US,California,Los_Angeles: UTC-8(-7)
1404,Al Kūt,Al Kut,32.4907,45.8304,IQ,Wāsiţ,Istanbul: UTC+3
1405,Córdoba,Cordoba,37.88,-4.77,ES,Andalusia,Paris: UTC+1(+2)
1406,Smolensk,Smolensk,54.7827,32.0473,RU,Smolenskaya Oblast’,Istanbul: UTC+3
1407,Lansing,Lansing,42.7142,-84.5601,US,Michigan,New_York: UTC-5(-4)
1408,Ciudad del Este,Ciudad del Este,-25.5167,-54.6161,PY,Alto Paraná,Asunción: UTC-3(-4)
1409,Pelotas,Pelotas,-31.75,-52.33,BR,Rio Grande do Sul,São_Paulo: UTC-3
1410,Podol’sk,Podol'sk,55.3804,37.5299,RU,Moskovskaya Oblast’,Istanbul: UTC+3
1411,Kherson,Kherson,46.6325,32.6007,UA,Khersons’ka Oblast’,Athens: UTC+2(+3)
1412,Shāhjānpur,Shahjanpur,27.8804,79.905,IN,Uttar Pradesh,Mumbai: UTC+5.5
1413,Itu,Itu,-23.26,-47.3,BR,São Paulo,São_Paulo: UTC-3
1414,Legazpi City,Legazpi City,13.17,123.75,PH,Albay,Shanghai: UTC+8
1415,Akita,Akita,39.71,140.09,JP,Akita,Tokyo: UTC+9
1416,Maroua,Maroua,10.5956,14.3247,CM,Extrême-Nord,Lagos: UTC+1
1417,Anápolis,Anapolis,-16.3196,-48.96,BR,Goiás,São_Paulo: UTC-3
1418,Pachuca,Pachuca,20.1704,-98.73,MX,Hidalgo,Mexico_City: UTC-6
1419,Bukhara,Bukhara,39.78,64.43,UZ,Buxoro,Karachi: UTC+5
1420,Murmansk,Murmansk,68.97,33.1,RU,Murmanskaya Oblast’,Istanbul: UTC+3
1421,Windsor,Windsor,42.3333,-83.0333,CA,Ontario,New_York: UTC-5(-4)
1422,Holguín,Holguin,20.8872,-76.2631,CU,Holguín,New_York: UTC-5(-4)
1423,Öskemen,Oskemen,49.99,82.6149,KZ,Shyghys Qazaqstan,Dhaka: UTC+6
1424,Tepic,Tepic,21.5054,-104.88,MX,Nayarit,Mexico_City: UTC-6
1425,Vladimir,Vladimir,56.13,40.4099,RU,Vladimirskaya Oblast’,Istanbul: UTC+3
1426,Mobile,Mobile,30.6782,-88.1163,US,Alabama,Chicago: UTC-6(-5)
1427,Hat Yai,Hat Yai,6.9964,100.4714,TH,Songkhla,Jakarta: UTC+7
1428,Poltava,Poltava,49.574,34.5703,UA,Poltavs’ka Oblast’,Athens: UTC+2(+3)
1429,New Delhi,New Delhi,28.6,77.2,IN,Delhi,Mumbai: UTC+5.5
1430,Cumaná,Cumana,10.45,-64.18,VE,Sucre,Caracas: UTC-4
1431,Hrodna,Hrodna,53.6779,23.8341,BY,Hrodzyenskaya Voblasts’,Istanbul: UTC+3
1432,Rohtak,Rohtak,28.9,76.58,IN,Haryāna,Mumbai: UTC+5.5
1433,Al Fayyūm,Al Fayyum,29.31,30.84,EG,Al Fayyūm,Cairo: UTC+2(+3)
1434,Cluj-Napoca,Cluj-Napoca,46.7884,23.5984,RO,Cluj,Athens: UTC+2(+3)
1435,Bauchi,Bauchi,10.3104,9.84,NG,Bauchi,Lagos: UTC+1
1436,Lexington,Lexington,38.0423,-84.4587,US,Kentucky,New_York: UTC-5(-4)
1437,Alicante,Alicante,38.3512,-0.4836,ES,Valencia,Paris: UTC+1(+2)
1438,Dezfūl,Dezful,32.3804,48.47,IR,Khūzestān,Tehran: UTC+3.5
1439,Maiquetía,Maiquetia,10.6004,-66.97,VE,Vargas,Caracas: UTC-4
1440,Armenia,Armenia,4.5343,-75.6811,CO,Quindío,Lima: UTC-5
1441,Timişoara,Timisoara,45.7588,21.2234,RO,Timiş,Athens: UTC+2(+3)
1442,Ljubljana,Ljubljana,46.0553,14.515,SI,Ljubljana,Paris: UTC+1(+2)
1443,Pescara,Pescara,42.4554,14.2187,IT,Abruzzo,Paris: UTC+1(+2)
1444,Gdynia,Gdynia,54.5204,18.53,PL,Pomorskie,Paris: UTC+1(+2)
1445,Angeles City,Angeles City,15.1451,120.5451,PH,Angeles,Shanghai: UTC+8
1446,Ningde,Ningde,26.6804,119.5301,CN,Fujian,Shanghai: UTC+8
1447,Aswān,Aswan,24.0875,32.8989,EG,Aswān,Cairo: UTC+2(+3)
1448,Varna,Varna,43.2156,27.8953,BG,Varna,Athens: UTC+2(+3)
1449,Koblenz,Koblenz,50.3505,7.6,DE,Rhineland-Palatinate,Paris: UTC+1(+2)
1450,Cherepovets,Cherepovets,59.1404,37.91,RU,Vologodskaya Oblast’,Istanbul: UTC+3
1451,Qŭrghonteppa,Qurghonteppa,37.8373,68.7713,TJ,Khatlon,Karachi: UTC+5
1452,Semey,Semey,50.435,80.275,KZ,Shyghys Qazaqstan,Dhaka: UTC+6
1453,Galaţi,Galati,45.4559,28.0459,RO,Galaţi,Athens: UTC+2(+3)
1454,Braşov,Brasov,45.6475,25.6072,RO,Braşov,Athens: UTC+2(+3)
1455,Sambalpur,Sambalpur,21.4704,83.9701,IN,Odisha,Mumbai: UTC+5.5
1456,Pucallpa,Pucallpa,-8.3689,-74.535,PE,Ucayali,Lima: UTC-5
1457,Antofagasta,Antofagasta,-23.65,-70.4,CL,Antofagasta,Santiago: UTC-3(-4)
1458,Huntsville,Huntsville,34.6988,-86.6412,US,Alabama,Chicago: UTC-6(-5)
1459,Santa Clarita,Santa Clarita,34.4155,-118.499,US,California,Los_Angeles: UTC-8(-7)
1460,Asheville,Asheville,35.5704,-82.5537,US,North Carolina,New_York: UTC-5(-4)
1461,Sapele,Sapele,5.8904,5.68,NG,Delta,Lagos: UTC+1
1462,Dayr az Zawr,Dayr az Zawr,35.3304,40.13,SY,Dayr az Zawr,Istanbul: UTC+3
1463,Chita,Chita,52.055,113.465,RU,Zabaykal’skiy Kray,Tokyo: UTC+9
1464,Valledupar,Valledupar,10.48,-73.25,CO,Cesar,Lima: UTC-5
1465,Vitória da Conquista,Vitoria da Conquista,-14.85,-40.84,BR,Bahia,São_Paulo: UTC-3
1466,Antsirabe,Antsirabe,-19.85,47.0333,MG,Antananarivo,Istanbul: UTC+3
1467,Nal’chik,Nal'chik,43.4981,43.6179,RU,Kabardino-Balkariya,Istanbul: UTC+3
1468,Chernihiv,Chernihiv,51.5049,31.3015,UA,Chernihivs’ka Oblast’,Athens: UTC+2(+3)
1469,Ratlām,Ratlam,23.3504,75.03,IN,Madhya Pradesh,Mumbai: UTC+5.5
1470,St. Paul,St. Paul,44.9477,-93.104,US,Minnesota,Chicago: UTC-6(-5)
1471,Ksar El Kebir,Ksar El Kebir,35.0204,-5.91,MA,Tanger-Tétouan-Al Hoceïma,Casablanca: UTC±0(+1)
1472,Tawau,Tawau,4.271,117.896,MY,Sabah,Shanghai: UTC+8
1473,Fīrozābād,Firozabad,27.15,78.3949,IN,Uttar Pradesh,Mumbai: UTC+5.5
1474,Porto Velho,Porto Velho,-8.75,-63.9,BR,Rondônia,Caracas: UTC-4
1475,San Salvador de Jujuy,San Salvador de Jujuy,-24.1833,-65.3,AR,Jujuy,São_Paulo: UTC-3
1476,Hatay,Hatay,36.2304,36.12,TR,Hatay,Istanbul: UTC+3
1477,Franca,Franca,-20.53,-47.39,BR,São Paulo,São_Paulo: UTC-3
1478,Rājahmundry,Rajahmundry,17.0303,81.79,IN,Andhra Pradesh,Mumbai: UTC+5.5
1479,Olongapo,Olongapo,14.8296,120.2828,PH,Olongapo,Shanghai: UTC+8
1480,Craiova,Craiova,44.3263,23.8259,RO,Dolj,Athens: UTC+2(+3)
1481,Kawm Umbū,Kawm Umbu,24.47,32.95,EG,Aswān,Cairo: UTC+2(+3)
1482,Los Teques,Los Teques,10.42,-67.02,VE,Miranda,Caracas: UTC-4
1483,Constanţa,Constanta,44.2027,28.61,RO,Constanţa,Athens: UTC+2(+3)
1484,Saransk,Saransk,54.1704,45.18,RU,Mordoviya,Istanbul: UTC+3
1485,Wenlan,Wenlan,23.3619,103.4061,CN,Yunnan,Shanghai: UTC+8
1486,Gəncə,Ganca,40.685,46.35,AZ,Gəncə,Dubai: UTC+4
